Serial Number,State,District,Thematic Area,Title,SDG,SDG1,SDG2,SDG3,SDG4,SDG5,SDG6,SDG7,SDG8,SDG9,SDG10,SDG11,SDG12,SDG13,SDG14,SDG15,SDG16,SDG17,Short Name,Implementing Partner,Programme Officer,Start Date,End Date,Program Life Cycle Budget,Delivery till 2015,Current Year Budget (2016),Current Year Delivery (2016),Budget for 2017,Lat,Lng
1,West Bengal,All Districts,Poverty Reduction,Improving efficiency of national health care systems in multiple states,SDG 3 : Good Health and Well-being;SDG 17 : Partnerships for the Goals;,no,no,yes,no,no,no,no,no,no,no,no,no,no,no,no,no,yes,Strengthening Health Systems,UNDP,Alka Narang,03-Jan-13,31-Dec-17,"13,500,000","12,326,808","624,000","400,000","500,000",22.5626,88.363
2,Haryana,All Districts,Poverty Reduction,Improving efficiency of national health care systems in multiple states,SDG 3 : Good Health and Well-being;SDG 17 : Partnerships for the Goals;,no,no,yes,no,no,no,no,no,no,no,no,no,no,no,no,no,yes,Strengthening Health Systems,UNDP,Alka Narang,03-Jan-13,31-Dec-17,"10,646,186","10,646,186",-,-,-,29.4477,75.6721
3,Delhi/NCR,Delhi,Poverty Reduction,Improving efficiency of national health care systems in multiple states,SDG 3 : Good Health and Well-being;SDG 17 : Partnerships for the Goals;,yes,no,no,no,no,no,no,no,no,no,no,no,no,no,no,no,no,Strengthening Health Systems,UNDP,Alka Narang,03-Jan-13,31-Dec-17,"16,628","16,628",-,-,-,28.7040592,77.1024902
4,Delhi/NCR,Delhi,Poverty Reduction,Increasing access to HIV/AIDS prevention and care for vulnerable people,SDG 3 : Good Health and Well-being;SDG 10 : Reduced Inequalities;,no,no,yes,no,no,no,no,no,no,yes,no,no,no,no,no,no,no,HIV/AIDS Prevention and Care,National AIDS Control Organisation,Alka Narang,10-Jan-13,31-Dec-17,"3,374,333","1,805,136","200,000","152,712","200,000",28.7040592,77.1024902
5,Delhi/NCR,Delhi,Poverty Reduction,Disha: Creating employment and entrepreneurship opportunities for women in India,SDG 1 : No Poverty;SDG 5 : Gender Equality;SDG 8 : Decent Work and Economic Growth;SDG 10 : Reduced Inequalities;SDG 17 : Partnerships for the Goals;,no,no,yes,no,no,no,no,no,no,no,no,no,no,no,no,no,yes,Women's Employment and Entrepreneurship,UNDP,Clement Chauvet,01-Jan-15,31-Dec-17,"2,391,487","154,687","898,786","439,230","700,000",28.7040592,77.1024902
6,Telangana,"Adilabad, Hyderabad, Khammam, Mahbubnagar, Ranga Reddy, Warangal",Poverty Reduction,Disha: Creating employment and entrepreneurship opportunities for women in India,SDG 1 : No Poverty;SDG 5 : Gender Equality;SDG 8 : Decent Work and Economic Growth;SDG 10 : Reduced Inequalities;SDG 17 : Partnerships for the Goals;,yes,no,no,no,yes,no,no,no,no,no,no,no,no,no,no,no,no,Women's Employment and Entrepreneurship,UNDP,Clement Chauvet,01-Jan-15,31-Dec-17,"2,391,487","154,687","898,786","439,230","700,000",18,79.5833
7,Maharashtra,All Districts,Poverty Reduction,Disha: Creating employment and entrepreneurship opportunities for women in India,SDG 1 : No Poverty;SDG 5 : Gender Equality;SDG 8 : Decent Work and Economic Growth;SDG 10 : Reduced Inequalities;SDG 17 : Partnerships for the Goals;,yes,no,no,no,yes,no,no,yes,no,yes,no,no,no,no,no,no,yes,Women's Employment and Entrepreneurship,UNDP,Clement Chauvet,01-Jan-15,31-Dec-17,"2,391,487","154,687","898,786","439,230","700,000",19.0728,72.8826
8,Haryana,"Gurgaon, Rohtak, Faridabad, Panipat, Sonipat, Rewari",Poverty Reduction,Disha: Creating employment and entrepreneurship opportunities for women in India,SDG 1 : No Poverty;SDG 5 : Gender Equality;SDG 8 : Decent Work and Economic Growth;SDG 10 : Reduced Inequalities;SDG 17 : Partnerships for the Goals;,yes,no,no,no,yes,no,no,yes,no,yes,no,no,no,no,no,no,yes,Women's Employment and Entrepreneurship,UNDP,Clement Chauvet,01-Jan-15,31-Dec-17,"2,391,487","154,687","898,786","439,230","700,000",28.4112,77.3132
9,Karnataka,All Districts,Poverty Reduction,Disha: Creating employment and entrepreneurship opportunities for women in India,SDG 1 : No Poverty;SDG 5 : Gender Equality;SDG 8 : Decent Work and Economic Growth;SDG 10 : Reduced Inequalities;SDG 17 : Partnerships for the Goals;,yes,no,no,no,no,no,no,yes,no,yes,no,no,no,no,no,yes,no,Women's Employment and Entrepreneurship,UNDP,Clement Chauvet,01-Jan-15,31-Dec-17,"2,391,487","154,687","898,786","439,230","700,000",12.9719,77.5937
10,Delhi/NCR,Delhi,Disaster Risk Reduction,Enhancing institutional and community resilience to disasters and climate change,SDG 1 : No Poverty;SDG 11 : Sustainable Cities and Communities;SDG 13 : Climate Change;SDG 17 : Partnerships for the Goals;,yes,no,no,no,yes,no,no,yes,no,yes,no,no,no,no,no,no,yes,Disaster Risk Reduction,Ministry of Home Affairs,G Padmanabhan,09-Jan-13,31-Dec-17,"4,604,435","3,289,194","572,443","379,314","278,674",28.7040592,77.1024902
11,Andhra Pradesh,"Krishna, Vishakapatnam",Disaster Risk Reduction,Enhancing institutional and community resilience to disasters and climate change,SDG 1 : No Poverty;SDG 11 : Sustainable Cities and Communities;SDG 13 : Climate Change;SDG 17 : Partnerships for the Goals;,yes,no,no,no,no,no,no,no,no,no,yes,no,yes,no,no,no,yes,Disaster Risk Reduction,Ministry of Home Affairs,G Padmanabhan,09-Jan-13,31-Dec-17,"250,000","150,000","18,000","15,679","82,000",15.9128998,79.7399875
12,Jharkhand,All Districts,Disaster Risk Reduction,Enhancing institutional and community resilience to disasters and climate change,SDG 1 : No Poverty;SDG 11 : Sustainable Cities and Communities;SDG 13 : Climate Change;SDG 17 : Partnerships for the Goals;,no,no,no,no,no,no,no,no,no,no,no,no,no,no,no,yes,no,Disaster Risk Reduction,Ministry of Home Affairs,G Padmanabhan,09-Jan-13,31-Dec-17,"250,000","120,000","114,000","65,738","16,000",23.3432,85.3094
13,Maharashtra,"Latur, Mumbai, Sangli",Disaster Risk Reduction,Enhancing institutional and community resilience to disasters and climate change,SDG 1 : No Poverty;SDG 11 : Sustainable Cities and Communities;SDG 13 : Climate Change;SDG 17 : Partnerships for the Goals;,yes,no,no,no,no,no,no,no,no,no,yes,no,yes,no,no,no,yes,Disaster Risk Reduction,Ministry of Home Affairs,G Padmanabhan,09-Jan-13,31-Dec-17,"219,565","131,739","59,400","35,648","28,426",18.5196,73.8554
14,Odisha,"Ganjam, Kendrapara, Puri",Disaster Risk Reduction,Enhancing institutional and community resilience to disasters and climate change,SDG 1 : No Poverty;SDG 11 : Sustainable Cities and Communities;SDG 13 : Climate Change;SDG 17 : Partnerships for the Goals;,yes,no,no,no,no,no,no,no,no,no,yes,no,yes,no,no,no,yes,Disaster Risk Reduction,Ministry of Home Affairs,G Padmanabhan,09-Jan-13,31-Dec-17,"170,000","102,000","18,500","11,765","49,500",20.2724,85.8338
15,Assam,"Dhemaji, Barpeta",Disaster Risk Reduction,Enhancing institutional and community resilience to disasters and climate change,SDG 1 : No Poverty;SDG 11 : Sustainable Cities and Communities;SDG 13 : Climate Change;SDG 17 : Partnerships for the Goals;,yes,yes,yes,yes,yes,no,no,no,no,yes,no,no,no,no,no,yes,no,Disaster Risk Reduction,Ministry of Home Affairs,G Padmanabhan,09-Jan-13,31-Dec-17,"150,000","90,000","50,000","45,635","10,000",26.1357,91.8007
16,Himachal Pradesh,"Kullu, Chamba, Shimla",Disaster Risk Reduction,Enhancing institutional and community resilience to disasters and climate change,SDG 1 : No Poverty;SDG 11 : Sustainable Cities and Communities;SDG 13 : Climate Change;SDG 17 : Partnerships for the Goals;,yes,no,no,no,no,no,no,no,no,no,yes,no,yes,no,no,no,yes,Disaster Risk Reduction,Ministry of Home Affairs,G Padmanabhan,09-Jan-13,31-Dec-17,"150,000","90,000","17,000","3,544","43,000",32.5715,76.1023
17,Sikkim,"East Sikkim, South Sikkim",Disaster Risk Reduction,Enhancing institutional and community resilience to disasters and climate change,SDG 1 : No Poverty;SDG 11 : Sustainable Cities and Communities;SDG 13 : Climate Change;SDG 17 : Partnerships for the Goals;,yes,no,no,no,no,no,no,no,no,no,yes,no,yes,no,no,no,yes,Disaster Risk Reduction,Ministry of Home Affairs,G Padmanabhan,09-Jan-13,31-Dec-17,"150,000","90,000","17,000","11,764","43,000",27.1773,88.5336
18,Tripura,"Dhalai, West Tripura",Disaster Risk Reduction,Enhancing institutional and community resilience to disasters and climate change,SDG 1 : No Poverty;SDG 11 : Sustainable Cities and Communities;SDG 13 : Climate Change;SDG 17 : Partnerships for the Goals;,yes,no,no,no,no,no,no,no,no,no,yes,no,yes,no,no,no,yes,Disaster Risk Reduction,Ministry of Home Affairs,G Padmanabhan,09-Jan-13,31-Dec-17,"150,000","90,000","17,000","13,442","43,000",23.2518,91.4541
19,Uttarakhand,"Almorah, Chamoli, Pauri Garwal",Disaster Risk Reduction,Enhancing institutional and community resilience to disasters and climate change,SDG 1 : No Poverty;SDG 11 : Sustainable Cities and Communities;SDG 17 : Partnerships for the Goals;,yes,no,no,no,no,no,no,no,no,no,yes,no,no,no,no,no,yes,Disaster Risk Reduction,Ministry of Home Affairs,G Padmanabhan,09-Jan-13,31-Dec-17,"71,000","42,600",-,-,"28,400",29.9479,78.1602
20,Kerala,"Pathanamthitta, Trivandrum",Disaster Risk Reduction,Enhancing institutional and community resilience to disasters and climate change,SDG 1 : No Poverty;SDG 11 : Sustainable Cities and Communities;SDG 13 : Climate Change;SDG 17 : Partnerships for the Goals;,yes,no,no,no,no,no,no,yes,no,yes,no,no,no,no,no,yes,no,Disaster Risk Reduction,Ministry of Home Affairs,G Padmanabhan,09-Jan-13,31-Dec-17,"70,000","42,000",-,-,"28,000",11.248,75.7804
21,Delhi/NCR,Delhi,Democratic Governance,Increasing access to justice for marginalised people,"SDG 16 : Peace, Justice and Strong Institutions;",yes,no,no,no,no,no,no,no,no,no,yes,no,yes,no,no,no,yes,Access to Justice,"Department of Justice, Ministry of Law and Justice",Hari Mohan,01-Jan-13,31-Dec-17,"4,218,962","2,001,358","368,853","283,910","349,682",28.7040592,77.1024902
22,Odisha,"Cuttack, Kalahandi, Puri",Democratic Governance,Increasing access to justice for marginalised people,"SDG 16 : Peace, Justice and Strong Institutions;",no,no,no,no,no,no,no,no,no,no,no,no,no,no,no,yes,no,Access to Justice,"Department of Justice, Ministry of Law and Justice",Hari Mohan,01-Jan-13,31-Dec-17,"181,654","56,222","66,710","35,466","58,722",19.4,83.5
23,Uttar Pradesh,Lucknow,Democratic Governance,Increasing access to justice for marginalised people,"SDG 16 : Peace, Justice and Strong Institutions;",no,no,no,no,no,no,no,no,no,no,no,no,no,no,no,yes,no,Access to Justice,"Department of Justice, Ministry of Law and Justice",Hari Mohan,01-Jan-13,31-Dec-17,"172,552","36,522","108,091","98,576","27,939",26.4652,80.3497
24,Madhya Pradesh,Sehore,Democratic Governance,Increasing access to justice for marginalised people,"SDG 16 : Peace, Justice and Strong Institutions;",no,no,no,no,no,no,no,no,no,no,no,no,no,no,no,yes,no,Access to Justice,"Department of Justice, Ministry of Law and Justice",Hari Mohan,01-Jan-13,31-Dec-17,"127,018","34,566","66,710","45,663","25,742",23.2,77.0833
25,Maharashtra,Mumbai,Democratic Governance,Increasing access to justice for marginalised people,"SDG 16 : Peace, Justice and Strong Institutions;",no,no,no,no,no,no,no,no,no,no,no,no,no,no,no,yes,no,Access to Justice,"Department of Justice, Ministry of Law and Justice",Hari Mohan,01-Jan-13,31-Dec-17,"95,000","12,530","46,518","34,566","35,952",19.9973,73.791
26,Chhattisgarh,Raipur,Democratic Governance,Increasing access to justice for marginalised people,"SDG 16 : Peace, Justice and Strong Institutions;",yes,no,no,no,no,no,no,yes,no,yes,no,no,no,no,no,yes,no,Access to Justice,"Department of Justice, Ministry of Law and Justice",Hari Mohan,01-Jan-13,31-Dec-17,"68,704","41,222",-,-,"27,482",21.2333,81.6333
27,Jharkhand,All Districts,Democratic Governance,Increasing access to justice for marginalised people,"SDG 16 : Peace, Justice and Strong Institutions;",yes,no,yes,no,no,no,no,no,no,yes,no,no,no,no,no,no,no,Access to Justice,"Department of Justice, Ministry of Law and Justice",Hari Mohan,01-Jan-13,31-Dec-17,"68,704","41,222",-,-,"27,482",23.0805,84.5383
28,Rajasthan,Jaipur,Democratic Governance,Increasing access to justice for marginalised people,"SDG 16 : Peace, Justice and Strong Institutions;",no,no,no,no,no,no,no,no,no,no,no,no,no,no,no,yes,no,Access to Justice,"Department of Justice, Ministry of Law and Justice",Hari Mohan,01-Jan-13,31-Dec-17,"67,406",-,"67,406","65,444",-,26.75,72.75
29,Delhi/NCR,Delhi,Democratic Governance,Supporting democratic electoral management,"SDG 16 : Peace, Justice and Strong Institutions;",no,no,no,no,no,no,no,no,no,no,no,no,no,no,no,yes,no,Electoral Management,UNDP,Hari Mohan,07-Jan-13,31-Dec-17,"1,029,000","1,014,549","125,000","121,182","125,000",28.7040592,77.1024902
30,Nagaland,"Mokokchung, Mon, Wokha",Energy & Environment,Sustainable land and ecosystem management in shifting cultivation areas of Nagaland for ecological and livelihood security,SDG 13 : Climate Change;SDG 15 : Life on Land;,no,no,no,no,no,no,no,no,no,no,no,no,yes,no,yes,no,no,Arresting Land Degradation,Government of Nagaland,Lianchawii Chhakchhuak,06-Jan-09,31-Dec-15,"1,413,426","1,298,642",-,-,-,25.6747,94.111
31,Madhya Pradesh,"Betul, Chhindwara, Sidhi, Singrauli, Umaria",Energy & Environment,Integrated land use management to combat land degradation and deforestation in Madhya Pradesh,SDG 13 : Climate Change;SDG 15 : Life on Land;,no,no,no,no,no,no,no,no,no,no,no,no,yes,no,yes,no,no,Arresting Land Degradation,Government of Madhya Pradesh,Lianchawii Chhakchhuak,09-Jan-10,31-Mar-16,"2,900,976","2,445,248","123,795","85,617",-,22.085,79.5504
32,Maharashtra,Sindhudurg,Energy & Environment,"Mainstreaming coastal and marine biodiversity conservation into production sectors in Sindhudurg coast, Maharashtra",SDG 13 : Climate Change;SDG 14 : Life Below Water;,no,no,no,no,no,no,no,no,no,no,no,no,yes,yes,no,no,no,Coastal and Marine Biodiversity,"Ministry of Environment, Forest and Climate Change",Lianchawii Chhakchhuak,01-Jan-12,31-Dec-16,"3,166,444","2,315,768","682,949","561,403",-,21.1463,79.0849
33,Andhra Pradesh,East Godavari,Energy & Environment,"Mainstreaming coastal and marine biodiversity conservation into production sectors in the East Godavari River estuarine ecosystem, Andhra Pradesh",SDG 13 : Climate Change;SDG 14 : Life Below Water;,no,no,no,no,no,no,no,no,no,no,no,no,yes,yes,no,no,no,Coastal and Marine Biodiversity,"Ministry of Environment, Forest and Climate Change",Lianchawii Chhakchhuak,06-Jan-11,31-Dec-17,"6,023,636","2,720,532","951,000","464,319",-,16.2997,80.4573
34,Delhi/NCR,Delhi,Poverty Reduction,Improving efficiency of vaccination systems in multiple states,SDG 1 : No Poverty;SDG 3 : Good Health and Well-being;SDG 10 : Reduced Inequalities;,no,no,no,no,no,no,no,no,yes,no,no,no,no,no,no,yes,no,Strengthening Health Systems,UNDP,Manish Pant,01-Jan-14,31-Dec-16,"8,800,000","2,584,155","3,735,565","3,069,925","3,750,000",28.7040592,77.1024902
35,Assam,All Districts,Poverty Reduction,Improving efficiency of vaccination systems in multiple states,SDG 1 : No Poverty;SDG 3 : Good Health and Well-being;SDG 10 : Reduced Inequalities;,yes,no,no,no,no,no,no,no,yes,no,yes,no,yes,no,no,no,yes,Strengthening Health Systems,UNDP,Manish Pant,01-Jan-14,31-Dec-16,"2,600,000","646,038","933,888","767,480","937,500",26.1844,91.7458
36,Bihar,All Districts,Poverty Reduction,Improving efficiency of vaccination systems in multiple states,SDG 1 : No Poverty;SDG 3 : Good Health and Well-being;SDG 10 : Reduced Inequalities;,yes,yes,yes,yes,yes,no,no,no,yes,yes,no,no,no,no,no,yes,no,Strengthening Health Systems,UNDP,Manish Pant,01-Jan-14,31-Dec-16,"2,600,000","646,038","933,888","767,480","937,500",25.5941,85.1356
37,Chhattisgarh,All Districts,Poverty Reduction,Improving efficiency of vaccination systems in multiple states,SDG 1 : No Poverty;SDG 3 : Good Health and Well-being;SDG 10 : Reduced Inequalities;,no,no,no,no,no,no,no,no,yes,no,no,no,no,no,no,yes,no,Strengthening Health Systems,UNDP,Manish Pant,01-Jan-14,31-Dec-16,"2,600,000","646,038","933,888","767,480","937,500",22.3458,82.6963
38,Gujarat,All Districts,Poverty Reduction,Improving efficiency of vaccination systems in multiple states,SDG 1 : No Poverty;SDG 3 : Good Health and Well-being;SDG 10 : Reduced Inequalities;,yes,no,yes,no,no,no,no,no,yes,yes,no,no,no,no,no,no,no,Strengthening Health Systems,UNDP,Manish Pant,01-Jan-14,31-Dec-16,"2,600,000","646,038","933,888","767,480","937,500",22.2994,73.2081
39,Himachal Pradesh,All Districts,Poverty Reduction,Improving efficiency of vaccination systems in multiple states,SDG 1 : No Poverty;SDG 3 : Good Health and Well-being;SDG 10 : Reduced Inequalities;,yes,no,no,no,no,no,no,yes,yes,yes,no,no,no,no,no,yes,no,Strengthening Health Systems,UNDP,Manish Pant,01-Jan-14,31-Dec-16,"2,600,000","646,038","933,888","767,480","937,500",31.7119,76.9327
40,Jharkhand,All Districts,Poverty Reduction,Improving efficiency of vaccination systems in multiple states,SDG 1 : No Poverty;SDG 3 : Good Health and Well-being;SDG 10 : Reduced Inequalities;,yes,no,no,no,no,no,no,yes,yes,yes,no,no,no,no,no,yes,no,Strengthening Health Systems,UNDP,Manish Pant,01-Jan-14,31-Dec-16,"2,600,000","646,038","933,888","767,480","937,500",23.6302,85.5193
41,Madhya Pradesh,All Districts,Poverty Reduction,Improving efficiency of vaccination systems in multiple states,SDG 1 : No Poverty;SDG 3 : Good Health and Well-being;SDG 10 : Reduced Inequalities;,yes,no,yes,no,no,no,no,no,yes,yes,no,no,no,no,no,no,no,Strengthening Health Systems,UNDP,Manish Pant,01-Jan-14,31-Dec-16,"2,600,000","646,038","933,888","767,480","937,500",24.5773,80.8272
42,Manipur,All Districts,Poverty Reduction,Improving efficiency of vaccination systems in multiple states,SDG 1 : No Poverty;SDG 3 : Good Health and Well-being;SDG 10 : Reduced Inequalities;,yes,no,yes,no,no,no,no,no,yes,yes,no,no,no,no,no,no,no,Strengthening Health Systems,UNDP,Manish Pant,01-Jan-14,31-Dec-16,"2,600,000","646,038","933,888","767,480","937,500",25.6667,94.5
43,Nagaland,All Districts,Poverty Reduction,Improving efficiency of vaccination systems in multiple states,SDG 1 : No Poverty;SDG 10 : Reduced Inequalities;,yes,no,no,no,no,no,no,no,yes,yes,no,no,no,no,no,no,no,Strengthening Health Systems,UNDP,Manish Pant,01-Jan-14,31-Dec-16,"2,600,000","646,038","933,888","767,480","937,500",26.1667,94.25
44,Odisha,All Districts,Poverty Reduction,Improving efficiency of vaccination systems in multiple states,SDG 1 : No Poverty;SDG 3 : Good Health and Well-being;SDG 10 : Reduced Inequalities;,yes,no,yes,no,no,no,no,no,yes,yes,no,no,no,no,no,no,no,Strengthening Health Systems,UNDP,Manish Pant,10-Jan-14,31-Dec-16,"2,600,000","646,038","933,888","767,480","937,500",19.3115,84.7929
45,Rajasthan,All Districts,Poverty Reduction,Improving efficiency of vaccination systems in multiple states,SDG 1 : No Poverty;SDG 10 : Reduced Inequalities;,yes,no,no,no,no,no,no,no,yes,yes,no,no,no,no,no,no,no,Strengthening Health Systems,UNDP,Manish Pant,01-Jan-14,31-Dec-16,"2,600,000","646,038","933,888","767,480","937,500",26.4521,74.6387
46,Uttar Pradesh,All Districts,Poverty Reduction,Improving efficiency of vaccination systems in multiple states,SDG 1 : No Poverty;SDG 3 : Good Health and Well-being;SDG 10 : Reduced Inequalities;,yes,no,yes,no,no,no,no,no,yes,yes,no,no,no,no,no,no,no,Strengthening Health Systems,UNDP,Manish Pant,01-Jan-14,31-Dec-16,"2,600,000","646,038","933,888","767,480","937,500",28.585,78.5696
47,Delhi/NCR,Delhi,Energy & Environment,Institutional strengthening for the phase out of ozone-depleting substance under the Montreal Protocol,SDG 13 : Climate Change;,yes,no,yes,no,no,no,no,no,yes,yes,no,no,no,no,no,no,no,Reducing Ozone Depletion,"Ministry of Environment, Forest and Climate Change",Manisha Sanghani,01-Jan-08,31-Dec-16,"856,920","592,553","51,920","51,796","230,000",28.7040592,77.1024902
48,Delhi/NCR,Delhi,Energy & Environment,HCFC phase-out management plan for compliance with 2013 and 2015 control targets,SDG 13 : Climate Change;,no,no,no,no,no,no,no,no,yes,no,no,no,yes,no,no,no,no,Phasing Out HCFC,UNDP,Manisha Sanghani,01-Jan-13,31-Dec-16,"18,438,490","14,545,118","3,091,462","918,888","5,000,000",28.7040592,77.1024902
49,Delhi/NCR,Delhi,Energy & Environment,Accelerated phase-out of CFC production in India,SDG 13 : Climate Change;,no,no,no,no,no,no,no,no,yes,no,no,no,yes,no,no,no,no,Phasing Out HCFC,UNDP,Manisha Sanghani,01-Jan-16,31-Dec-16,"1,806,993",-,"1,806,993","1,088,325",-,28.7040592,77.1024902
50,Delhi/NCR,Delhi,Poverty Reduction,Strategic programmatic engagement at state level,SDG 1 : No Poverty;,no,no,no,no,no,no,no,no,no,no,no,no,yes,no,no,no,no,Strategic State Engagement,UNDP,Momin Jaan,01-Jan-13,31-Dec-17,"4,850,000","2,320,318","1,357,877","704,545","719,000",28.7040592,77.1024902
51,Rajasthan,Jaipur,Poverty Reduction,Strategic programmatic engagement at state level,SDG 1 : No Poverty;,yes,no,no,no,no,no,no,no,no,no,no,no,no,no,no,no,no,Strategic State Engagement,UNDP,Momin Jaan,01-Jan-13,31-Dec-17,"150,000","90,000","50,000","25,436","10,000",25.3471,74.6408
52,Delhi/NCR,Delhi,Poverty Reduction,Strengthening Nehru Yuva Kendra Sangathan and National Service Scheme,"SDG 1 : No Poverty;SDG 8 : Decent Work and Economic Growth;SDG 10 : Reduced Inequalities;SDG 16 : Peace, Justice and Strong Institutions;",yes,no,no,no,no,no,no,no,no,no,no,no,no,no,no,no,no,Youth Engagement,Ministry of Youth Affairs and Sports,Narendra Mishra,10-Jan-14,31-Dec-17,"943,434","152,283","242,616","129,342","689,296",28.7040592,77.1024902
53,Andhra Pradesh,Anantpur,Poverty Reduction,Strengthening Nehru Yuva Kendra Sangathan and National Service Scheme,"SDG 1 : No Poverty;SDG 8 : Decent Work and Economic Growth;SDG 10 : Reduced Inequalities;SDG 16 : Peace, Justice and Strong Institutions;",yes,no,no,no,no,no,no,yes,no,yes,no,no,no,no,no,yes,no,Youth Engagement,Ministry of Youth Affairs and Sports,Narendra Mishra,10-Jan-14,31-Dec-17,"50,000","1,061","12,739","12,618","13,000",15.1711,77.3624
55,Assam,Nalbari,Poverty Reduction,Strengthening Nehru Yuva Kendra Sangathan and National Service Scheme,"SDG 1 : No Poverty;SDG 8 : Decent Work and Economic Growth;SDG 10 : Reduced Inequalities;SDG 16 : Peace, Justice and Strong Institutions;",yes,no,yes,no,no,no,no,no,no,yes,no,no,no,no,no,no,no,Youth Engagement,Ministry of Youth Affairs and Sports,Narendra Mishra,10-Jan-14,31-Dec-17,"50,000","1,061","12,739","12,618","13,000",27.489,95.3599
56,Bihar,Sitamarhi,Poverty Reduction,Strengthening Nehru Yuva Kendra Sangathan and National Service Scheme,"SDG 1 : No Poverty;SDG 8 : Decent Work and Economic Growth;SDG 10 : Reduced Inequalities;SDG 16 : Peace, Justice and Strong Institutions;",yes,no,yes,no,no,no,no,no,no,yes,no,no,no,no,no,no,no,Youth Engagement,Ministry of Youth Affairs and Sports,Narendra Mishra,10-Jan-14,31-Dec-17,"50,000","1,061","12,739","12,618","13,000",26.1522,85.8969
57,Chhattisgarh,Surguja,Poverty Reduction,Strengthening Nehru Yuva Kendra Sangathan and National Service Scheme,"SDG 1 : No Poverty;SDG 8 : Decent Work and Economic Growth;SDG 10 : Reduced Inequalities;SDG 16 : Peace, Justice and Strong Institutions;",yes,no,yes,no,no,no,no,no,no,yes,no,no,no,no,no,no,no,Youth Engagement,Ministry of Youth Affairs and Sports,Narendra Mishra,10-Jan-14,31-Dec-17,"50,000","1,061","12,739","12,618","13,000",22.08,82.1554
58,Goa,South Goa,Poverty Reduction,Strengthening Nehru Yuva Kendra Sangathan and National Service Scheme,"SDG 1 : No Poverty;SDG 8 : Decent Work and Economic Growth;SDG 10 : Reduced Inequalities;SDG 16 : Peace, Justice and Strong Institutions;",yes,no,no,no,no,no,no,yes,no,yes,no,no,no,no,no,yes,no,Youth Engagement,Ministry of Youth Affairs and Sports,Narendra Mishra,10-Jan-14,31-Dec-17,"50,000","1,061","12,739","12,618","13,000",15.4095,73.7886
59,Gujarat,Rajkot,Poverty Reduction,Strengthening Nehru Yuva Kendra Sangathan and National Service Scheme,"SDG 1 : No Poverty;SDG 8 : Decent Work and Economic Growth;SDG 10 : Reduced Inequalities;SDG 16 : Peace, Justice and Strong Institutions;",yes,no,no,no,no,no,no,yes,no,yes,no,no,no,no,no,yes,no,Youth Engagement,Ministry of Youth Affairs and Sports,Narendra Mishra,10-Jan-14,31-Dec-17,"50,000","1,061","12,739","12,618","13,000",23.0258,72.5873
60,Haryana,Mahendragarh,Poverty Reduction,Strengthening Nehru Yuva Kendra Sangathan and National Service Scheme,"SDG 1 : No Poverty;SDG 8 : Decent Work and Economic Growth;SDG 10 : Reduced Inequalities;SDG 16 : Peace, Justice and Strong Institutions;",yes,no,no,no,no,no,no,yes,no,yes,no,no,no,no,no,yes,no,Youth Engagement,Ministry of Youth Affairs and Sports,Narendra Mishra,10-Jan-14,31-Dec-17,"50,000","1,061","12,739","12,618","13,000",29.3875,76.9683
61,Himachal Pradesh,Sirmour,Poverty Reduction,Strengthening Nehru Yuva Kendra Sangathan and National Service Scheme,"SDG 1 : No Poverty;SDG 8 : Decent Work and Economic Growth;SDG 10 : Reduced Inequalities;SDG 16 : Peace, Justice and Strong Institutions;",yes,yes,yes,yes,yes,no,no,no,no,yes,no,no,no,no,no,no,no,Youth Engagement,Ministry of Youth Affairs and Sports,Narendra Mishra,10-Jan-14,31-Dec-17,"50,000","1,061","12,739","12,618","13,000",32,77.25
62,Jammu and Kashmir,Rajauri,Poverty Reduction,Strengthening Nehru Yuva Kendra Sangathan and National Service Scheme,"SDG 1 : No Poverty;SDG 8 : Decent Work and Economic Growth;SDG 10 : Reduced Inequalities;SDG 16 : Peace, Justice and Strong Institutions;",yes,yes,yes,yes,yes,no,no,no,no,yes,no,no,no,no,no,no,no,Youth Engagement,Ministry of Youth Affairs and Sports,Narendra Mishra,10-Jan-14,31-Dec-17,"50,000","1,061","12,739","12,618","13,000",34.3333,77.4167
63,Jharkhand,Gumla,Poverty Reduction,Strengthening Nehru Yuva Kendra Sangathan and National Service Scheme,"SDG 1 : No Poverty;SDG 8 : Decent Work and Economic Growth;SDG 10 : Reduced Inequalities;SDG 16 : Peace, Justice and Strong Institutions;",yes,no,no,no,no,yes,no,no,no,yes,yes,no,yes,no,no,no,yes,Youth Engagement,Ministry of Youth Affairs and Sports,Narendra Mishra,10-Jan-14,31-Dec-17,"50,000","1,061","12,739","12,618","13,000",23.9951,85.3611
64,Karnataka,Dakshina Kannada,Poverty Reduction,Strengthening Nehru Yuva Kendra Sangathan and National Service Scheme,"SDG 1 : No Poverty;SDG 8 : Decent Work and Economic Growth;SDG 10 : Reduced Inequalities;SDG 16 : Peace, Justice and Strong Institutions;",yes,yes,yes,yes,yes,no,no,no,no,yes,no,no,no,no,no,no,no,Youth Engagement,Ministry of Youth Affairs and Sports,Narendra Mishra,10-Jan-14,31-Dec-17,"50,000","1,061","12,739","12,618","13,000",13.8485,75.705
65,Kerala,Ernakulam,Poverty Reduction,Strengthening Nehru Yuva Kendra Sangathan and National Service Scheme,"SDG 1 : No Poverty;SDG 8 : Decent Work and Economic Growth;SDG 10 : Reduced Inequalities;SDG 16 : Peace, Justice and Strong Institutions;",yes,yes,yes,yes,yes,no,no,no,no,yes,no,no,no,no,no,no,no,Youth Engagement,Ministry of Youth Affairs and Sports,Narendra Mishra,10-Jan-14,31-Dec-17,"50,000","1,061","12,739","12,618","13,000",8.8811,76.5847
66,Madhya Pradesh,Tikamgarh,Poverty Reduction,Strengthening Nehru Yuva Kendra Sangathan and National Service Scheme,"SDG 1 : No Poverty;SDG 8 : Decent Work and Economic Growth;SDG 10 : Reduced Inequalities;SDG 16 : Peace, Justice and Strong Institutions;",yes,no,no,no,no,no,no,yes,no,yes,no,no,no,no,no,yes,no,Youth Engagement,Ministry of Youth Affairs and Sports,Narendra Mishra,10-Jan-14,31-Dec-17,"50,000","1,061","12,739","12,618","13,000",25.4238,77.6622
67,Maharashtra,Thane,Poverty Reduction,Strengthening Nehru Yuva Kendra Sangathan and National Service Scheme,"SDG 1 : No Poverty;SDG 8 : Decent Work and Economic Growth;SDG 10 : Reduced Inequalities;SDG 16 : Peace, Justice and Strong Institutions;",yes,no,no,no,no,no,no,yes,no,yes,no,no,no,no,no,yes,no,Youth Engagement,Ministry of Youth Affairs and Sports,Narendra Mishra,10-Jan-14,31-Dec-17,"50,000","1,061","12,739","12,618","13,000",20.7393,78.5978
68,Manipur,Tamenglong,Poverty Reduction,Strengthening Nehru Yuva Kendra Sangathan and National Service Scheme,"SDG 1 : No Poverty;SDG 8 : Decent Work and Economic Growth;SDG 10 : Reduced Inequalities;SDG 16 : Peace, Justice and Strong Institutions;",yes,no,no,no,no,no,no,yes,no,yes,no,no,no,no,no,yes,no,Youth Engagement,Ministry of Youth Affairs and Sports,Narendra Mishra,10-Jan-14,31-Dec-17,"50,000","1,061","12,739","12,618","13,000",25.0483,94.3588
69,Meghalaya,Ri Bhoi,Poverty Reduction,Strengthening Nehru Yuva Kendra Sangathan and National Service Scheme,"SDG 1 : No Poverty;SDG 8 : Decent Work and Economic Growth;SDG 10 : Reduced Inequalities;SDG 16 : Peace, Justice and Strong Institutions;",yes,no,no,no,no,no,no,yes,no,yes,no,no,no,no,no,yes,no,Youth Engagement,Ministry of Youth Affairs and Sports,Narendra Mishra,10-Jan-14,31-Dec-17,"50,000","1,061","12,739","12,618","13,000",25.5689,91.8831
70,Mizoram,Lunglei,Poverty Reduction,Strengthening Nehru Yuva Kendra Sangathan and National Service Scheme,"SDG 1 : No Poverty;SDG 8 : Decent Work and Economic Growth;SDG 10 : Reduced Inequalities;SDG 16 : Peace, Justice and Strong Institutions;",yes,no,no,no,no,no,no,yes,no,yes,no,no,no,no,no,yes,no,Youth Engagement,Ministry of Youth Affairs and Sports,Narendra Mishra,10-Jan-14,31-Dec-17,"50,000","1,061","12,739","12,618","13,000",22.3767,93.0122
71,Nagaland,Dimapur,Poverty Reduction,Strengthening Nehru Yuva Kendra Sangathan and National Service Scheme,"SDG 1 : No Poverty;SDG 8 : Decent Work and Economic Growth;SDG 10 : Reduced Inequalities;SDG 16 : Peace, Justice and Strong Institutions;",yes,no,no,no,no,no,no,yes,no,yes,no,no,no,no,no,yes,no,Youth Engagement,Ministry of Youth Affairs and Sports,Narendra Mishra,10-Jan-14,31-Dec-17,"50,000","1,061","12,739","12,618","13,000",25.7785,93.7851
72,Odisha,Nuapada,Poverty Reduction,Strengthening Nehru Yuva Kendra Sangathan and National Service Scheme,"SDG 1 : No Poverty;SDG 8 : Decent Work and Economic Growth;SDG 10 : Reduced Inequalities;SDG 16 : Peace, Justice and Strong Institutions;",yes,no,no,no,no,no,yes,no,no,yes,no,no,no,no,no,yes,no,Youth Engagement,Ministry of Youth Affairs and Sports,Narendra Mishra,10-Jan-14,31-Dec-17,"50,000","1,061","12,739","12,618","13,000",21.0545,86.5156
73,Punjab,Patiala,Poverty Reduction,Strengthening Nehru Yuva Kendra Sangathan and National Service Scheme,"SDG 1 : No Poverty;SDG 8 : Decent Work and Economic Growth;SDG 10 : Reduced Inequalities;SDG 16 : Peace, Justice and Strong Institutions;",yes,no,no,no,no,no,no,yes,no,yes,no,no,no,no,no,yes,no,Youth Engagement,Ministry of Youth Affairs and Sports,Narendra Mishra,10-Jan-14,31-Dec-17,"50,000","1,061","12,739","12,618","13,000",31.3256,75.5792
74,Rajasthan,Sikar,Poverty Reduction,Strengthening Nehru Yuva Kendra Sangathan and National Service Scheme,"SDG 1 : No Poverty;SDG 8 : Decent Work and Economic Growth;SDG 10 : Reduced Inequalities;SDG 16 : Peace, Justice and Strong Institutions;",yes,no,no,no,no,no,no,yes,no,yes,no,no,no,no,no,yes,no,Youth Engagement,Ministry of Youth Affairs and Sports,Narendra Mishra,10-Jan-14,31-Dec-17,"50,000","1,061","12,739","12,618","13,000",25.1825,75.8391
75,Sikkim,South Sikkim,Poverty Reduction,Strengthening Nehru Yuva Kendra Sangathan and National Service Scheme,"SDG 1 : No Poverty;SDG 8 : Decent Work and Economic Growth;SDG 10 : Reduced Inequalities;SDG 16 : Peace, Justice and Strong Institutions;",yes,no,no,no,no,no,no,yes,no,yes,no,no,no,no,no,yes,no,Youth Engagement,Ministry of Youth Affairs and Sports,Narendra Mishra,10-Jan-14,31-Dec-17,"50,000","1,061","12,739","12,618","13,000",27.165,88.3637
76,Tamil Nadu,Kanniyakmari,Poverty Reduction,Strengthening Nehru Yuva Kendra Sangathan and National Service Scheme,"SDG 1 : No Poverty;SDG 8 : Decent Work and Economic Growth;SDG 10 : Reduced Inequalities;SDG 16 : Peace, Justice and Strong Institutions;",yes,no,no,no,no,no,no,yes,no,yes,no,no,no,no,no,yes,no,Youth Engagement,Ministry of Youth Affairs and Sports,Narendra Mishra,10-Jan-14,31-Dec-17,"50,000","1,061","12,739","12,618","13,000",11.3428,77.7274
77,Telangana,Khammam,Poverty Reduction,Strengthening Nehru Yuva Kendra Sangathan and National Service Scheme,"SDG 1 : No Poverty;SDG 8 : Decent Work and Economic Growth;SDG 10 : Reduced Inequalities;SDG 16 : Peace, Justice and Strong Institutions;",yes,no,no,no,no,no,no,yes,no,yes,no,no,no,no,no,yes,no,Youth Engagement,Ministry of Youth Affairs and Sports,Narendra Mishra,10-Jan-14,31-Dec-17,"50,000","1,061","12,739","12,618","13,000",18.0453,78.2608
78,Tripura,Gomati,Poverty Reduction,Strengthening Nehru Yuva Kendra Sangathan and National Service Scheme,"SDG 1 : No Poverty;SDG 8 : Decent Work and Economic Growth;SDG 10 : Reduced Inequalities;SDG 16 : Peace, Justice and Strong Institutions;",yes,no,no,no,no,no,no,yes,no,yes,no,no,no,no,no,yes,no,Youth Engagement,Ministry of Youth Affairs and Sports,Narendra Mishra,10-Jan-14,31-Dec-17,"50,000","1,061","12,739","12,618","13,000",23.8431,91.9259
79,Uttar Pradesh,Meerut,Poverty Reduction,Strengthening Nehru Yuva Kendra Sangathan and National Service Scheme,"SDG 1 : No Poverty;SDG 8 : Decent Work and Economic Growth;SDG 10 : Reduced Inequalities;SDG 16 : Peace, Justice and Strong Institutions;",yes,no,no,no,no,no,no,yes,no,yes,no,no,no,no,no,yes,no,Youth Engagement,Ministry of Youth Affairs and Sports,Narendra Mishra,10-Jan-14,31-Dec-17,"50,000","1,061","12,739","12,618","13,000",25.4448,81.8432
80,Uttarakhand,Uttarkashi,Poverty Reduction,Strengthening Nehru Yuva Kendra Sangathan and National Service Scheme,"SDG 1 : No Poverty;SDG 8 : Decent Work and Economic Growth;SDG 10 : Reduced Inequalities;SDG 16 : Peace, Justice and Strong Institutions;",yes,no,no,no,no,no,no,yes,no,yes,no,no,no,no,no,yes,no,Youth Engagement,Ministry of Youth Affairs and Sports,Narendra Mishra,10-Jan-14,31-Dec-17,"50,000","1,061","12,739","12,618","13,000",30.3244,78.0339
81,West Bengal,Kolkata,Poverty Reduction,Strengthening Nehru Yuva Kendra Sangathan and National Service Scheme,"SDG 1 : No Poverty;SDG 8 : Decent Work and Economic Growth;SDG 10 : Reduced Inequalities;SDG 16 : Peace, Justice and Strong Institutions;",yes,no,no,no,no,no,no,yes,no,yes,no,no,no,no,no,yes,no,Youth Engagement,Ministry of Youth Affairs and Sports,Narendra Mishra,10-Jan-14,31-Dec-17,"50,000","1,061","12,739","12,618","13,000",26.71,88.4285
82,Jharkhand,Sahibganj,Energy & Environment,Rural sanitation initiatives for Ganga rejuvenation in Jharkhand,SDG 1 : No Poverty;SDG 6 : Clean Water and Sanitation;SDG 10 : Reduced Inequalities;SDG 11 : Sustainable Cities and Communities;SDG 13 : Climate Change;SDG 17 : Partnerships for the Goals;,no,no,no,no,no,no,yes,no,no,no,no,no,no,no,no,no,no,Ganga Rejuvenation,UNDP,Prabhjot Sodhi,08-Jan-15,31-Dec-18,"18,330,000",-,"5,400,000","585,439","8,930,000",23.802,86.4432
83,Delhi/NCR,Delhi,Energy & Environment,"Developing an effective multiple-use management framework for conserving biodiversity in the mountain landscape of the high ranges, Western Ghats, India",SDG 11 : Sustainable Cities and Communities;SDG 15 : Life on Land;,yes,no,no,no,no,no,no,yes,no,yes,no,no,no,no,no,yes,no,Conserving Mountain Biodiversity,UNDP,Preeti Soni,03-Jan-14,31-Dec-18,"6,275,000","843,491",-,-,"700,000",28.7040592,77.1024902
84,Delhi/NCR,Delhi,Energy & Environment,Increasing access to renewable energy for microenterprises in rural India,SDG 1 : No Poverty;SDG 8 : Decent Work and Economic Growth;,no,no,no,no,no,no,yes,no,yes,no,no,no,yes,no,no,no,no,Access to Renewable Energy,Ministry of New and Renewable Energy,Preeti Soni,26-Jun-14,31-Dec-17,"1,400,000","25,660",-,-,-,28.7040592,77.1024902
85,Madhya Pradesh,All Districts,Poverty Reduction,Building an institutional structure to provide marketing support and capacity building for Entrepreneurs under the Mukhyamantri Yuva Udyami Yojana,SDG 1 : No Poverty;SDG 8 : Decent Work and Economic Growth;,yes,no,no,no,no,no,no,yes,no,no,no,no,no,no,no,no,no,Supporting Entrepreneurship,UNDP,Ratnesh,01-Aug-15,31-Jul-18,"618,935",-,"194,666","213,226","225,000",21.6856,75.0962
86,Delhi/NCR,Delhi,Democratic Governance,Human Development: towards bridging inequalities,"SDG 1 : No Poverty;SDG 2 : Zero Hunger;SDG 3 : Good Health and Well-being;SDG 4 : Quality Education;SDG 5 : Gender Equality;SDG 10 : Reduced Inequalities;SDG 16 : Peace, Justice and Strong Institutions;",no,no,no,no,no,no,no,no,no,no,yes,no,no,no,yes,no,no,Human Development,NITI Aayog,Ritu Mathur,10-Jan-11,31-Dec-17,"1,080,320","605,422","111,958","156,337","30,000",28.7040592,77.1024902
87,Karnataka,All Districts,Democratic Governance,Human Development: towards bridging inequalities,"SDG 1 : No Poverty;SDG 2 : Zero Hunger;SDG 3 : Good Health and Well-being;SDG 4 : Quality Education;SDG 5 : Gender Equality;SDG 10 : Reduced Inequalities;SDG 16 : Peace, Justice and Strong Institutions;",yes,yes,yes,yes,yes,no,no,no,no,yes,no,no,no,no,no,yes,no,Human Development,NITI Aayog,Ritu Mathur,10-Jan-11,31-Dec-17,"307,320","184,392",-,-,-,12.2979,76.6392
88,Maharashtra,All Districts,Democratic Governance,Human Development: towards bridging inequalities,"SDG 1 : No Poverty;SDG 2 : Zero Hunger;SDG 3 : Good Health and Well-being;SDG 4 : Quality Education;SDG 5 : Gender Equality;SDG 10 : Reduced Inequalities;SDG 16 : Peace, Justice and Strong Institutions;",yes,yes,yes,yes,yes,no,no,no,no,yes,no,no,no,no,no,no,no,Human Development,NITI Aayog,Ritu Mathur,10-Jan-11,31-Dec-17,"292,160","175,296","80,530","45,888","70,000",20.9333,77.75
89,Assam,All Districts,Democratic Governance,Human Development: towards bridging inequalities,"SDG 1 : No Poverty;SDG 2 : Zero Hunger;SDG 3 : Good Health and Well-being;SDG 4 : Quality Education;SDG 5 : Gender Equality;SDG 10 : Reduced Inequalities;SDG 16 : Peace, Justice and Strong Institutions;",yes,no,no,no,no,no,no,yes,no,yes,no,no,no,no,no,yes,no,Human Development,NITI Aayog,Ritu Mathur,10-Jan-11,31-Dec-16,"262,000","39,869","11,200","9,876","10,000",24.8273,92.7979
90,Gujarat,All Districts,Democratic Governance,Human Development: towards bridging inequalities,"SDG 1 : No Poverty;SDG 2 : Zero Hunger;SDG 3 : Good Health and Well-being;SDG 4 : Quality Education;SDG 5 : Gender Equality;SDG 10 : Reduced Inequalities;SDG 16 : Peace, Justice and Strong Institutions;",yes,yes,yes,yes,yes,no,no,no,no,yes,no,no,no,no,no,no,no,Human Development,NITI Aayog,Ritu Mathur,10-Jan-11,31-Dec-17,"150,600","103,249","39,000","23,009","40,000",21.1959,72.8302
91,Delhi/NCR,Delhi,Democratic Governance,Human Development: towards bridging inequalities,"SDG 1 : No Poverty;SDG 2 : Zero Hunger;SDG 3 : Good Health and Well-being;SDG 4 : Quality Education;SDG 5 : Gender Equality;SDG 10 : Reduced Inequalities;SDG 16 : Peace, Justice and Strong Institutions;",yes,yes,yes,yes,yes,no,no,no,no,yes,no,no,no,no,no,no,no,Human Development,NITI Aayog,Ritu Mathur,10-Jan-12,31-Dec-14,"51,000","51,030",-,-,-,28.7040592,77.1024902
92,Himachal Pradesh,All Districts,Democratic Governance,Human Development: towards bridging inequalities,"SDG 1 : No Poverty;SDG 2 : Zero Hunger;SDG 3 : Good Health and Well-being;SDG 4 : Quality Education;SDG 5 : Gender Equality;SDG 10 : Reduced Inequalities;SDG 16 : Peace, Justice and Strong Institutions;",yes,yes,yes,yes,yes,no,no,no,no,yes,no,no,no,no,no,yes,no,Human Development,NITI Aayog,Ritu Mathur,10-Jan-11,31-Dec-17,"143,000","38,092","15,000","12,765","30,000",31.1045,77.1666
93,Tamil Nadu,All Districts,Democratic Governance,Human Development: towards bridging inequalities,"SDG 1 : No Poverty;SDG 2 : Zero Hunger;SDG 3 : Good Health and Well-being;SDG 4 : Quality Education;SDG 5 : Gender Equality;SDG 10 : Reduced Inequalities;SDG 16 : Peace, Justice and Strong Institutions;",yes,yes,yes,yes,yes,no,no,no,no,yes,no,no,no,no,no,no,no,Human Development,NITI Aayog,Ritu Mathur,10-Jan-11,31-Dec-17,"150,600","90,360",-,-,-,12.8352,79.7001
94,Odisha,"Kendujhar, Khordha",Democratic Governance,Human Development: towards bridging inequalities,"SDG 1 : No Poverty;SDG 2 : Zero Hunger;SDG 3 : Good Health and Well-being;SDG 4 : Quality Education;SDG 5 : Gender Equality;SDG 10 : Reduced Inequalities;SDG 16 : Peace, Justice and Strong Institutions;",yes,yes,yes,yes,yes,no,no,no,no,yes,no,no,no,no,no,no,no,Human Development,NITI Aayog,Ritu Mathur,01-Jan-11,31-Dec-17,"146,000","87,600",-,-,-,21.4927,86.9335
95,Nagaland,All Districts,Democratic Governance,Human Development: towards bridging inequalities,"SDG 1 : No Poverty;SDG 2 : Zero Hunger;SDG 3 : Good Health and Well-being;SDG 4 : Quality Education;SDG 5 : Gender Equality;SDG 10 : Reduced Inequalities;SDG 16 : Peace, Justice and Strong Institutions;",yes,yes,yes,yes,yes,no,no,no,no,yes,no,no,no,no,no,no,no,Human Development,NITI Aayog,Ritu Mathur,10-Jan-11,31-Dec-17,"115,000","69,000",-,-,-,26.7358,95.0584
96,Madhya Pradesh,"Chhatarpur, Damoh, Datia, Panna, Sehore, Tikamgarh, Vidisha",Democratic Governance,Human Development: towards bridging inequalities,"SDG 1 : No Poverty;SDG 2 : Zero Hunger;SDG 3 : Good Health and Well-being;SDG 4 : Quality Education;SDG 5 : Gender Equality;SDG 10 : Reduced Inequalities;SDG 16 : Peace, Justice and Strong Institutions;",yes,yes,yes,yes,yes,no,no,no,no,yes,no,no,no,no,no,no,no,Human Development,NITI Aayog,Ritu Mathur,10-Jan-11,31-Dec-17,"1,000",600,-,-,-,23.2547,77.4029
97,Uttar Pradesh,"Banda, Chitrakoot, Jalaun, Jhansi, Mahoba",Democratic Governance,Human Development: towards bridging inequalities,"SDG 1 : No Poverty;SDG 2 : Zero Hunger;SDG 3 : Good Health and Well-being;SDG 4 : Quality Education;SDG 10 : Reduced Inequalities;SDG 16 : Peace, Justice and Strong Institutions;",yes,yes,yes,yes,yes,no,no,no,no,yes,no,no,no,no,no,no,no,Human Development,NITI Aayog,Ritu Mathur,10-Jan-14,31-Dec-16,"1,000",600,-,-,-,25.3167,83.0104
98,Delhi/NCR,Delhi,Democratic Governance,Strengthening capacities for decentralized planning,"SDG 1 : No Poverty;SDG 2 : Zero Hunger;SDG 3 : Good Health and Well-being;SDG 4 : Quality Education;SDG 5 : Gender Equality;SDG 10 : Reduced Inequalities;SDG 16 : Peace, Justice and Strong Institutions;",yes,yes,yes,yes,yes,no,no,no,no,yes,no,no,no,no,no,yes,no,Decentralized Planning,NITI Aayog,Ritu Mathur,01-Jan-13,31-Dec-17,"802,375","507,618","193,815","52,747","150,000",28.7040592,77.1024902
99,Madhya Pradesh,"Mandla, Tikamgarh",Democratic Governance,Strengthening capacities for decentralized planning,"SDG 1 : No Poverty;SDG 2 : Zero Hunger;SDG 3 : Good Health and Well-being;SDG 4 : Quality Education;SDG 5 : Gender Equality;SDG 10 : Reduced Inequalities;SDG 16 : Peace, Justice and Strong Institutions;",yes,yes,yes,yes,yes,no,no,no,no,yes,no,no,no,no,no,yes,no,Decentralized Planning,NITI Aayog,Ritu Mathur,01-Jan-13,31-Dec-17,"176,031","105,619","19,214","15,634",-,22.7179,75.8333
100,Odisha,"Ganjam, Sundargarh",Democratic Governance,Strengthening capacities for decentralized planning,"SDG 1 : No Poverty;SDG 2 : Zero Hunger;SDG 3 : Good Health and Well-being;SDG 4 : Quality Education;SDG 5 : Gender Equality;SDG 10 : Reduced Inequalities;SDG 16 : Peace, Justice and Strong Institutions;",yes,yes,yes,yes,yes,no,no,no,no,yes,no,no,no,no,no,yes,no,Decentralized Planning,NITI Aayog,Ritu Mathur,01-Jan-13,31-Dec-17,"176,031","105,619","19,214","14,356",-,21.8167,83.9167
101,Chhattisgarh,"Durg, Janjgir-Champa, Kanker, Raipur",Democratic Governance,Strengthening capacities for decentralized planning,"SDG 1 : No Poverty;SDG 2 : Zero Hunger;SDG 3 : Good Health and Well-being;SDG 4 : Quality Education;SDG 5 : Gender Equality;SDG 10 : Reduced Inequalities;SDG 16 : Peace, Justice and Strong Institutions;",yes,no,no,no,no,no,no,yes,no,yes,no,no,no,no,no,yes,no,Decentralized Planning,NITI Aayog,Ritu Mathur,01-Jan-13,31-Dec-17,"162,983","97,790","19,214","13,452",-,21.1915,81.2762
102,Delhi/NCR,Delhi,Democratic Governance,Strengthening human resource management of civil service,SDG 1 : No Poverty;SDG 2 : Zero Hunger;SDG 3 : Good Health and Well-being;SDG 4 : Quality Education;SDG 5 : Gender Equality;SDG 10 : Reduced Inequalities;,yes,yes,yes,yes,yes,no,no,no,no,yes,no,no,no,no,no,yes,no,Personnel Management in Civil Services,"Department of Personnel and Training; Ministry of Personnel, Public Grievances and Pensions",Ritu Mathur,01-Jan-13,31-Dec-17,"2,091,455","1,283,708","648,228","369,591","140,000",28.7040592,77.1024902
103,Andhra Pradesh,All Districts,Democratic Governance,Strengthening human resource management of civil service,SDG 1 : No Poverty;SDG 2 : Zero Hunger;SDG 3 : Good Health and Well-being;SDG 4 : Quality Education;SDG 5 : Gender Equality;SDG 10 : Reduced Inequalities;,yes,yes,yes,yes,yes,no,no,no,no,yes,no,no,no,no,no,no,no,Personnel Management in Civil Services,"Department of Personnel and Training; Ministry of Personnel, Public Grievances and Pensions",Ritu Mathur,01-Jan-13,31-Dec-17,"1,000",600,-,-,400,13.6355,79.4199
104,Assam,All Districts,Democratic Governance,Strengthening human resource management of civil service,SDG 1 : No Poverty;SDG 2 : Zero Hunger;SDG 3 : Good Health and Well-being;SDG 4 : Quality Education;SDG 5 : Gender Equality;SDG 10 : Reduced Inequalities;,yes,yes,yes,yes,yes,no,no,no,no,yes,no,no,no,no,no,no,no,Personnel Management in Civil Services,"Department of Personnel and Training; Ministry of Personnel, Public Grievances and Pensions",Ritu Mathur,01-Jan-13,31-Dec-17,"1,000",600,-,-,400,24.8684,92.5962
105,Chhattisgarh,All Districts,Democratic Governance,Strengthening human resource management of civil service,SDG 1 : No Poverty;SDG 2 : Zero Hunger;SDG 3 : Good Health and Well-being;SDG 4 : Quality Education;SDG 5 : Gender Equality;SDG 10 : Reduced Inequalities;,yes,yes,yes,yes,yes,yes,no,no,no,yes,no,no,no,no,no,no,no,Personnel Management in Civil Services,"Department of Personnel and Training; Ministry of Personnel, Public Grievances and Pensions",Ritu Mathur,01-Jan-13,31-Dec-17,"1,000",600,-,-,400,22.0085,81.2315
106,Goa,All Districts,Democratic Governance,Strengthening human resource management of civil service,SDG 1 : No Poverty;SDG 2 : Zero Hunger;SDG 3 : Good Health and Well-being;SDG 4 : Quality Education;SDG 5 : Gender Equality;SDG 10 : Reduced Inequalities;,yes,yes,yes,yes,yes,no,no,no,no,yes,no,no,no,no,no,no,no,Personnel Management in Civil Services,"Department of Personnel and Training; Ministry of Personnel, Public Grievances and Pensions",Ritu Mathur,01-Jan-13,31-Dec-17,"1,000",600,-,-,400,15.4959,73.8264
107,Gujarat,All Districts,Democratic Governance,Strengthening human resource management of civil service,SDG 1 : No Poverty;SDG 2 : Zero Hunger;SDG 3 : Good Health and Well-being;SDG 4 : Quality Education;SDG 5 : Gender Equality;SDG 10 : Reduced Inequalities;,yes,yes,yes,yes,yes,no,no,no,no,yes,no,no,no,no,no,yes,no,Personnel Management in Civil Services,"Department of Personnel and Training; Ministry of Personnel, Public Grievances and Pensions",Ritu Mathur,01-Jan-13,31-Dec-17,"1,000",600,-,-,400,23.2167,72.6833
108,Haryana,All Districts,Democratic Governance,Strengthening human resource management of civil service,SDG 1 : No Poverty;SDG 2 : Zero Hunger;SDG 3 : Good Health and Well-being;SDG 4 : Quality Education;SDG 5 : Gender Equality;SDG 10 : Reduced Inequalities;,yes,yes,yes,yes,yes,no,no,no,no,yes,no,no,no,no,no,no,no,Personnel Management in Civil Services,"Department of Personnel and Training; Ministry of Personnel, Public Grievances and Pensions",Ritu Mathur,01-Jan-13,31-Dec-17,"1,000",600,-,-,400,30.2825,76.9064
109,Himachal Pradesh,All Districts,Democratic Governance,Strengthening human resource management of civil service,SDG 1 : No Poverty;SDG 2 : Zero Hunger;SDG 3 : Good Health and Well-being;SDG 4 : Quality Education;SDG 5 : Gender Equality;SDG 10 : Reduced Inequalities;,yes,no,no,no,no,no,no,yes,no,yes,no,no,no,no,no,yes,no,Personnel Management in Civil Services,"Department of Personnel and Training; Ministry of Personnel, Public Grievances and Pensions",Ritu Mathur,01-Jan-13,31-Dec-17,"1,000",600,-,-,400,31.5837,76.1928
110,Jammu and Kashmir,All Districts,Democratic Governance,Strengthening human resource management of civil service,SDG 1 : No Poverty;SDG 2 : Zero Hunger;SDG 3 : Good Health and Well-being;SDG 4 : Quality Education;SDG 5 : Gender Equality;SDG 10 : Reduced Inequalities;,yes,no,no,no,no,no,no,no,no,no,yes,no,yes,no,no,no,yes,Personnel Management in Civil Services,"Department of Personnel and Training; Ministry of Personnel, Public Grievances and Pensions",Ritu Mathur,01-Jan-13,31-Dec-17,"1,000",600,-,-,400,34.0857,74.8056
111,Karnataka,All Districts,Democratic Governance,Strengthening human resource management of civil service,SDG 1 : No Poverty;SDG 2 : Zero Hunger;SDG 3 : Good Health and Well-being;SDG 4 : Quality Education;SDG 5 : Gender Equality;SDG 10 : Reduced Inequalities;,no,no,no,no,no,no,yes,no,no,no,no,no,no,no,no,no,no,Personnel Management in Civil Services,"Department of Personnel and Training; Ministry of Personnel, Public Grievances and Pensions",Ritu Mathur,01-Jan-13,31-Dec-17,"1,000",600,-,-,400,16.8244,75.7154
112,Kerala,All Districts,Democratic Governance,Strengthening human resource management of civil service,SDG 1 : No Poverty;SDG 2 : Zero Hunger;SDG 3 : Good Health and Well-being;SDG 4 : Quality Education;SDG 5 : Gender Equality;SDG 10 : Reduced Inequalities;,no,no,no,no,no,no,no,no,no,no,no,no,yes,no,no,no,no,Personnel Management in Civil Services,"Department of Personnel and Training; Ministry of Personnel, Public Grievances and Pensions",Ritu Mathur,01-Jan-13,31-Dec-17,"1,000",600,-,-,400,8.4855,76.9492
113,Madhya Pradesh,All Districts,Democratic Governance,Strengthening human resource management of civil service,SDG 1 : No Poverty;SDG 2 : Zero Hunger;SDG 3 : Good Health and Well-being;SDG 4 : Quality Education;SDG 5 : Gender Equality;SDG 10 : Reduced Inequalities;,yes,yes,yes,yes,yes,no,no,no,no,yes,no,no,no,no,no,yes,no,Personnel Management in Civil Services,"Department of Personnel and Training; Ministry of Personnel, Public Grievances and Pensions",Ritu Mathur,01-Jan-13,31-Dec-17,"1,000",600,-,-,400,24.5326,81.2923
114,Maharashtra,All Districts,Democratic Governance,Strengthening human resource management of civil service,SDG 1 : No Poverty;SDG 2 : Zero Hunger;SDG 3 : Good Health and Well-being;SDG 4 : Quality Education;SDG 5 : Gender Equality;SDG 10 : Reduced Inequalities;,yes,yes,yes,yes,yes,no,no,no,no,yes,no,no,no,no,no,yes,no,Personnel Management in Civil Services,"Department of Personnel and Training; Ministry of Personnel, Public Grievances and Pensions",Ritu Mathur,01-Jan-13,31-Dec-17,"1,000",600,-,-,400,19.0946,74.7384
115,Manipur,All Districts,Democratic Governance,Strengthening human resource management of civil service,SDG 1 : No Poverty;SDG 2 : Zero Hunger;SDG 3 : Good Health and Well-being;SDG 4 : Quality Education;SDG 5 : Gender Equality;SDG 10 : Reduced Inequalities;,yes,yes,yes,yes,yes,no,no,no,no,yes,no,no,no,no,no,no,no,Personnel Management in Civil Services,"Department of Personnel and Training; Ministry of Personnel, Public Grievances and Pensions",Ritu Mathur,01-Jan-13,31-Dec-17,"1,000",600,-,-,400,24.8081,93.9442
116,Meghalaya,All Districts,Democratic Governance,Strengthening human resource management of civil service,SDG 1 : No Poverty;SDG 2 : Zero Hunger;SDG 3 : Good Health and Well-being;SDG 4 : Quality Education;SDG 5 : Gender Equality;SDG 10 : Reduced Inequalities;,yes,yes,yes,yes,yes,no,no,no,no,yes,no,no,no,no,no,no,no,Personnel Management in Civil Services,"Department of Personnel and Training; Ministry of Personnel, Public Grievances and Pensions",Ritu Mathur,01-Jan-13,31-Dec-17,"1,000",600,-,-,400,25.3009,91.6962
117,Mizoram,All Districts,Democratic Governance,Strengthening human resource management of civil service,SDG 1 : No Poverty;SDG 2 : Zero Hunger;SDG 3 : Good Health and Well-being;SDG 4 : Quality Education;SDG 5 : Gender Equality;SDG 10 : Reduced Inequalities;,yes,yes,yes,yes,yes,no,no,no,no,yes,no,no,no,no,no,no,no,Personnel Management in Civil Services,"Department of Personnel and Training; Ministry of Personnel, Public Grievances and Pensions",Ritu Mathur,01-Jan-13,31-Dec-17,"1,000",600,-,-,400,24.2239,92.6787
118,Nagaland,All Districts,Democratic Governance,Strengthening human resource management of civil service,SDG 1 : No Poverty;SDG 2 : Zero Hunger;SDG 3 : Good Health and Well-being;SDG 4 : Quality Education;SDG 5 : Gender Equality;SDG 10 : Reduced Inequalities;,yes,yes,yes,yes,yes,no,no,no,no,yes,no,no,no,no,no,yes,no,Personnel Management in Civil Services,"Department of Personnel and Training; Ministry of Personnel, Public Grievances and Pensions",Ritu Mathur,01-Jan-13,31-Dec-17,"1,000",600,-,-,400,26.5555,94.8003
119,Odisha,All Districts,Democratic Governance,Strengthening human resource management of civil service,SDG 1 : No Poverty;SDG 2 : Zero Hunger;SDG 3 : Good Health and Well-being;SDG 4 : Quality Education;SDG 5 : Gender Equality;SDG 10 : Reduced Inequalities;,yes,yes,yes,yes,yes,no,no,no,no,yes,no,no,no,no,no,yes,no,Personnel Management in Civil Services,"Department of Personnel and Training; Ministry of Personnel, Public Grievances and Pensions",Ritu Mathur,01-Jan-13,31-Dec-17,"1,000",600,-,-,400,19.7982,85.8249
120,Punjab,All Districts,Democratic Governance,Strengthening human resource management of civil service,SDG 1 : No Poverty;SDG 2 : Zero Hunger;SDG 3 : Good Health and Well-being;SDG 4 : Quality Education;SDG 5 : Gender Equality;SDG 10 : Reduced Inequalities;,yes,yes,yes,yes,yes,no,no,no,no,yes,no,no,no,no,no,no,no,Personnel Management in Civil Services,"Department of Personnel and Training; Ministry of Personnel, Public Grievances and Pensions",Ritu Mathur,01-Jan-13,31-Dec-17,"1,000",600,-,-,400,30.912,75.8538
121,Rajasthan,All Districts,Democratic Governance,Strengthening human resource management of civil service,SDG 1 : No Poverty;SDG 2 : Zero Hunger;SDG 3 : Good Health and Well-being;SDG 4 : Quality Education;SDG 5 : Gender Equality;SDG 10 : Reduced Inequalities;,yes,yes,yes,yes,yes,no,no,no,no,yes,no,no,no,no,no,no,no,Personnel Management in Civil Services,"Department of Personnel and Training; Ministry of Personnel, Public Grievances and Pensions",Ritu Mathur,01-Jan-13,31-Dec-17,"1,000",600,-,-,400,26.9196,75.7878
122,Sikkim,All Districts,Democratic Governance,Strengthening human resource management of civil service,SDG 1 : No Poverty;SDG 2 : Zero Hunger;SDG 3 : Good Health and Well-being;SDG 4 : Quality Education;SDG 5 : Gender Equality;SDG 10 : Reduced Inequalities;,yes,yes,yes,yes,yes,no,no,no,no,yes,no,no,no,no,no,no,no,Personnel Management in Civil Services,"Department of Personnel and Training; Ministry of Personnel, Public Grievances and Pensions",Ritu Mathur,01-Jan-13,31-Dec-17,"1,000",600,-,-,400,27.2786,88.4101
123,Tamil Nadu,All Districts,Democratic Governance,Strengthening human resource management of civil service,SDG 1 : No Poverty;SDG 2 : Zero Hunger;SDG 3 : Good Health and Well-being;SDG 4 : Quality Education;SDG 5 : Gender Equality;SDG 10 : Reduced Inequalities;,yes,yes,yes,yes,yes,no,no,no,no,yes,no,no,no,no,no,yes,no,Personnel Management in Civil Services,"Department of Personnel and Training; Ministry of Personnel, Public Grievances and Pensions",Ritu Mathur,01-Jan-13,31-Dec-17,"1,000",600,-,-,400,10.0153,77.482
124,Telangana,All Districts,Democratic Governance,Strengthening human resource management of civil service,SDG 1 : No Poverty;SDG 2 : Zero Hunger;SDG 3 : Good Health and Well-being;SDG 4 : Quality Education;SDG 5 : Gender Equality;SDG 10 : Reduced Inequalities;,yes,yes,yes,yes,yes,no,no,no,no,yes,no,no,no,no,no,no,no,Personnel Management in Civil Services,"Department of Personnel and Training; Ministry of Personnel, Public Grievances and Pensions",Ritu Mathur,01-Jan-13,31-Dec-17,"1,000",600,-,-,400,19.0968,78.3441
125,Tripura,All Districts,Democratic Governance,Strengthening human resource management of civil service,SDG 1 : No Poverty;SDG 2 : Zero Hunger;SDG 3 : Good Health and Well-being;SDG 4 : Quality Education;SDG 5 : Gender Equality;SDG 10 : Reduced Inequalities;,yes,yes,yes,yes,yes,no,no,no,no,yes,no,no,no,no,no,no,no,Personnel Management in Civil Services,"Department of Personnel and Training; Ministry of Personnel, Public Grievances and Pensions",Ritu Mathur,01-Jan-13,31-Dec-17,"1,000",600,-,-,400,24.0796,91.5997
126,Uttar Pradesh,All Districts,Democratic Governance,Strengthening human resource management of civil service,SDG 1 : No Poverty;SDG 2 : Zero Hunger;SDG 3 : Good Health and Well-being;SDG 4 : Quality Education;SDG 5 : Gender Equality;SDG 10 : Reduced Inequalities;,yes,yes,yes,yes,no,no,no,no,no,yes,no,no,no,no,no,yes,no,Personnel Management in Civil Services,"Department of Personnel and Training; Ministry of Personnel, Public Grievances and Pensions",Ritu Mathur,01-Jan-13,31-Dec-17,"1,000",600,-,-,400,28.6654,77.4391
127,West Bengal,All Districts,Democratic Governance,Strengthening human resource management of civil service,SDG 1 : No Poverty;SDG 2 : Zero Hunger;SDG 3 : Good Health and Well-being;SDG 4 : Quality Education;SDG 5 : Gender Equality;SDG 10 : Reduced Inequalities;,yes,yes,yes,yes,yes,no,no,no,no,yes,no,no,no,no,no,no,no,Personnel Management in Civil Services,"Department of Personnel and Training; Ministry of Personnel, Public Grievances and Pensions",Ritu Mathur,01-Jan-13,31-Dec-17,"1,000",600,-,-,400,22.5769,88.3186
128,Delhi/NCR,Delhi,Energy & Environment,"Fifth operational phase, Small Grants Programme",SDG 1 : No Poverty;SDG 7 : Affordable and Clean Energy;SDG 13 : Climate Change;SDG 14 : Life Below Water;SDG 15 : Life on Land;SDG 17 : Partnerships for the Goals;,no,no,no,no,no,no,no,no,no,no,no,no,no,no,yes,no,no,Small Grants Programme,Centre For Environment Education,Ruchi Pant,01-Jan-12,31-Dec-17,"2,500,000","1,371,267","650,000","267,529","478,733",28.7040592,77.1024902
129,Maharashtra,All Districts,Energy & Environment,"Fifth operational phase, Small Grants Programme",SDG 1 : No Poverty;SDG 7 : Affordable and Clean Energy;SDG 13 : Climate Change;SDG 14 : Life Below Water;SDG 15 : Life on Land;SDG 17 : Partnerships for the Goals;,no,no,no,no,no,no,no,no,no,no,no,no,no,no,yes,no,no,Small Grants Programme,Ministry of New and Renewable Energy,Ruchi Pant,01-Jan-12,31-Dec-17,"2,500,000","1,371,267","650,000","267,529","478,733",19.8776,75.3423
130,Delhi/NCR,Delhi,Energy & Environment,Strengthening natural resource management,SDG 15 : Life on Land;,no,no,no,no,no,no,no,no,no,no,no,no,yes,no,yes,no,no,Natural Resource Management,UNDP,Ruchi Pant,10-Jan-13,31-Oct-17,"1,250,000","509,058","772,375","826,559","755,000",28.7040592,77.1024902
131,Maharashtra,Mumbai,Energy & Environment,Strengthening natural resource management,SDG 15 : Life on Land;,yes,no,no,no,no,no,yes,no,no,no,no,no,yes,yes,yes,no,yes,Natural Resource Management,UNDP,Ruchi Pant,10-Jan-13,31-Oct-17,"1,000,000","400,000","400,000","234,556","200,000",16.8544,74.5642
132,Delhi/NCR,Delhi,Energy & Environment,Securing livelihoods in the Himalayas,SDG 13 : Climate Change;SDG 15 : Life on Land;,yes,no,no,no,no,no,yes,no,no,no,no,no,yes,yes,yes,no,yes,Livelihood Promotion,UNDP,Ruchi Pant,10-Jan-15,31-Dec-16,"190,000",-,"190,000","153,107",-,28.7040592,77.1024902
133,Mizoram,"Aizawl, Lunglei",Energy & Environment,Joint UN initiative for ecosystem-based livelihood promotion in Mizoram,SDG 13 : Climate Change;,yes,no,no,no,no,no,no,yes,no,yes,no,no,no,no,no,yes,no,Livelihood Promotion,UNDP,Ruchi Pant,01-Jan-14,31-Dec-17,"226,355","187,304",-,-,-,23.7289,92.7177
134,Delhi/NCR,Delhi,Energy & Environment,Removal of barriers to biomass power generation,SDG 7 : Affordable and Clean Energy;,no,no,no,no,no,no,yes,no,yes,no,no,no,no,no,no,no,no,Biomass Power Generation,Ministry of New and Renewable Energy,S N Srinivas,06-Jan-08,31-Mar-16,"5,650,000","1,717,829","180,000","178,788",-,28.7040592,77.1024902
135,Delhi/NCR,Delhi,Energy & Environment,Energy efficiency improvements in the Indian brick industry,SDG 7 : Affordable and Clean Energy;SDG 11 : Sustainable Cities and Communities;,no,no,no,no,no,no,yes,no,yes,no,no,no,no,no,no,no,no,Energy Efficient Brick Industry,"Ministry of Environment, Forest and Climate Change",S N Srinivas,04-Jan-09,31-Dec-16,"696,448","79,000","138,903","90,537",-,28.7040592,77.1024902
136,Delhi/NCR,Delhi,Energy & Environment,Energy efficiency improvements in commercial buildings,SDG 7 : Affordable and Clean Energy;SDG 11 : Sustainable Cities and Communities;,no,no,no,no,no,no,yes,no,yes,no,no,no,no,no,no,no,no,Energy Efficient Buildings,Bureau of Energy Efficiency,S N Srinivas,10-Jan-10,31-Mar-17,"1,040,000","409,218","280,000","280,000","300,000",28.7040592,77.1024902
137,Rajasthan,All Districts,Energy & Environment,Energy efficiency improvements in commercial buildings,SDG 11 : Sustainable Cities and Communities;SDG 12 : Responsible Consumption and Production;,no,no,no,no,no,no,yes,no,yes,no,no,no,no,no,no,no,no,Energy Efficient Buildings,Bureau of Energy Efficiency,S N Srinivas,01-Jan-11,31-Mar-17,"520,000","204,609","140,000","140,000","150,000",26.2684,73.0059
138,Karnataka,All Districts,Energy & Environment,Energy efficiency improvements in commercial buildings,SDG 7 : Affordable and Clean Energy;,no,no,no,no,no,no,yes,no,yes,no,no,no,no,no,no,no,no,Energy Efficient Buildings,Bureau of Energy Efficiency,S N Srinivas,01-Jan-12,31-Dec-17,"520,000","204,609","140,000","140,000","150,000",15.8521,74.5045
139,Kerala,All Districts,Energy & Environment,Energy efficiency improvements in commercial buildings,SDG 11 : Sustainable Cities and Communities;SDG 12 : Responsible Consumption and Production;,no,no,no,no,no,no,yes,no,yes,no,no,no,no,no,no,no,no,Energy Efficient Buildings,Bureau of Energy Efficiency,S N Srinivas,01-Jan-11,31-Mar-17,"520,000","204,609","140,000","140,000","150,000",9.9399,76.2602
140,Andhra Pradesh,All Districts,Energy & Environment,Energy efficiency improvements in commercial buildings,SDG 11 : Sustainable Cities and Communities;SDG 12 : Responsible Consumption and Production;,no,no,no,no,no,no,no,no,yes,no,yes,yes,no,no,no,no,no,Energy Efficient Buildings,Bureau of Energy Efficiency,S N Srinivas,01-Jan-11,31-Mar-17,"520,000","204,609","140,000","140,000","150,000",13.4167,79
141,Chhattisgarh,All Districts,Energy & Environment,Energy efficiency improvements in commercial buildings,SDG 11 : Sustainable Cities and Communities;SDG 12 : Responsible Consumption and Production;,yes,yes,yes,yes,yes,no,no,no,yes,yes,no,no,no,no,no,yes,no,Energy Efficient Buildings,Bureau of Energy Efficiency,S N Srinivas,01-Jan-11,31-Mar-17,"520,000","204,609","140,000","140,000","150,000",21.2092,81.4286
142,Uttar Pradesh,All Districts,Energy & Environment,Energy efficiency improvements in commercial buildings,SDG 11 : Sustainable Cities and Communities;SDG 12 : Responsible Consumption and Production;,no,no,no,no,no,no,yes,no,yes,no,no,no,no,no,no,no,no,Energy Efficient Buildings,Bureau of Energy Efficiency,S N Srinivas,01-Jan-11,31-Mar-17,"520,000","204,609","140,000","140,000","150,000",26.8393,80.9231
143,Punjab,All Districts,Energy & Environment,Energy efficiency improvements in commercial buildings,SDG 11 : Sustainable Cities and Communities;SDG 12 : Responsible Consumption and Production;,no,no,no,no,no,no,yes,no,yes,no,no,no,no,no,no,no,no,Energy Efficient Buildings,Bureau of Energy Efficiency,S N Srinivas,01-Jan-11,31-Mar-17,"520,000","204,609","140,000","140,000","150,000",30.68,76.7221
144,Haryana,All Districts,Energy & Environment,Energy efficiency improvements in commercial buildings,SDG 11 : Sustainable Cities and Communities;SDG 12 : Responsible Consumption and Production;,no,no,no,no,no,no,no,no,yes,no,yes,yes,no,no,no,no,no,Energy Efficient Buildings,Bureau of Energy Efficiency,S N Srinivas,01-Jan-11,31-Mar-17,"520,000","204,609","140,000","140,000","150,000",28.8945,76.5892
145,Delhi/NCR,Delhi,Energy & Environment,Market development and promotion of solar concentrator for process heat applications,SDG 7 : Affordable and Clean Energy;,no,no,no,no,no,no,yes,no,yes,no,no,no,no,no,no,no,no,Promoting Solar Concentrator Technology,Ministry of New and Renewable Energy,S N Srinivas,03-Jan-12,31-Mar-17,"4,300,000","2,589,744","1,300,000","333,044","510,256",28.7040592,77.1024902
146,Karnataka,All Districts,Energy & Environment,Market development and promotion of solar concentrator for process heat applications,SDG 7 : Affordable and Clean Energy;,yes,no,no,no,no,no,no,no,yes,no,yes,no,yes,no,no,no,yes,Promoting Solar Concentrator Technology,Ministry of New and Renewable Energy,S N Srinivas,03-Jan-12,31-Mar-17,"100,000","60,000",-,-,"40,000",13.3223,75.774
147,Punjab,"Fateh Garh, Ludhiana",Energy & Environment,Upscaling energy efficient production in small-scale steel industry in India,SDG 7 : Affordable and Clean Energy;,no,no,no,no,no,no,no,no,yes,no,yes,yes,no,no,no,no,no,Energy Efficient Steel,Ministry of Steel,S N Srinivas,01-Jun-13,31-Dec-16,"125,706","122,992","20,137","13,047","5,882",31.6223,74.8753
148,Chhattisgarh,"Durg, Raipur",Energy & Environment,Upscaling energy efficient production in small-scale steel industry in India,SDG 7 : Affordable and Clean Energy;,no,no,no,no,no,no,yes,no,yes,no,no,no,no,no,no,no,no,Energy Efficient Steel,Ministry of Steel,S N Srinivas,01-Jun-13,31-Dec-16,"125,706","122,992","20,137","13,047","5,882",19.0814,82.0213
149,Gujarat,"Ahmedabad, Mehsana, Bhavnagar",Energy & Environment,Upscaling energy efficient production in small-scale steel industry in India,SDG 7 : Affordable and Clean Energy;,no,no,no,no,no,no,yes,no,yes,no,no,no,no,no,no,no,no,Energy Efficient Steel,Ministry of Steel,S N Srinivas,01-Jun-13,31-Dec-16,"125,706","122,992","20,137","13,047","5,882",23.8507,72.1296
150,Maharashtra,"Chandrapur, Jalna, Mumbai, Nashik, Thane, Wardha",Energy & Environment,Upscaling energy efficient production in small-scale steel industry in India,SDG 7 : Affordable and Clean Energy;,no,no,no,no,no,no,yes,no,yes,no,no,no,no,no,no,no,no,Energy Efficient Steel,Ministry of Steel,S N Srinivas,01-Jun-13,31-Dec-16,"125,706","122,992","20,137","13,047","5,882",16.6959,74.2315
151,Rajasthan,Jaipur,Energy & Environment,Upscaling energy efficient production in small-scale steel industry in India,SDG 7 : Affordable and Clean Energy;,no,no,no,no,no,no,no,no,yes,no,yes,yes,no,no,no,no,no,Energy Efficient Steel,Ministry of Steel,S N Srinivas,01-Jun-13,31-Dec-16,"125,706","122,992","20,137","13,047","5,882",28.0176,73.3149
152,Tamil Nadu,"Chennai, Coimbatore, Erode, Karur, Salem",Energy & Environment,Upscaling energy efficient production in small-scale steel industry in India,SDG 7 : Affordable and Clean Energy;,no,no,no,no,no,no,yes,no,yes,no,no,no,no,no,no,no,no,Energy Efficient Steel,Ministry of Steel,S N Srinivas,01-Jun-13,31-Dec-16,"125,706","122,992","20,137","13,047","5,882",13.0878,80.2785
153,West Bengal,"Bankura, Howrah, Kolkata",Energy & Environment,Upscaling energy efficient production in small-scale steel industry in India,SDG 7 : Affordable and Clean Energy;,no,no,no,no,no,no,yes,no,yes,no,no,no,no,no,no,no,no,Energy Efficient Steel,Ministry of Steel,S N Srinivas,01-Jun-13,31-Dec-16,"125,706","122,992","20,137","13,047","5,882",22.3397,87.325
154,Telangana,Hyderabad,Energy & Environment,Upscaling energy efficient production in small-scale steel industry in India,SDG 7 : Affordable and Clean Energy;,no,no,no,no,no,no,yes,no,yes,no,no,no,no,no,no,no,no,Energy Efficient Steel,Ministry of Steel,S N Srinivas,01-Jun-13,31-Dec-16,"125,706","122,992","20,137","13,047","5,882",19.672,78.5359
155,Kerala,"Kozhikode, Ernakulam, Palghat",Energy & Environment,Upscaling energy efficient production in small-scale steel industry in India,SDG 7 : Affordable and Clean Energy;,no,no,no,no,no,no,no,no,yes,no,yes,yes,no,no,no,no,no,Energy Efficient Steel,Ministry of Steel,S N Srinivas,01-Jun-13,31-Dec-16,"125,706","122,992","20,137","13,047","5,882",9.4167,76.5
156,Uttar Pradesh,"Lucknow, Muzaffar Nagar",Energy & Environment,Upscaling energy efficient production in small-scale steel industry in India,SDG 7 : Affordable and Clean Energy;,no,no,no,no,no,no,no,no,yes,no,yes,yes,no,no,no,no,no,Energy Efficient Steel,Ministry of Steel,S N Srinivas,01-Jun-13,31-Dec-16,"125,706","122,992","20,137","13,047","5,882",28.98,77.7064
157,Assam,Kamrup,Energy & Environment,Upscaling energy efficient production in small-scale steel industry in India,SDG 7 : Affordable and Clean Energy;,yes,yes,yes,yes,yes,no,yes,no,yes,yes,no,no,no,no,no,yes,no,Energy Efficient Steel,Ministry of Steel,S N Srinivas,01-Jun-13,31-Dec-16,"125,706","122,992","20,137","13,047","5,882",26.4493,91.6136
158,Jharkhand,Seraikela Kharsawan,Energy & Environment,Upscaling energy efficient production in small-scale steel industry in India,SDG 7 : Affordable and Clean Energy;,no,no,yes,no,no,no,yes,no,yes,no,no,no,no,no,no,no,no,Energy Efficient Steel,Ministry of Steel,S N Srinivas,01-Jun-13,31-Dec-16,"125,706","122,992","20,137","13,047","5,882",22.8028,86.1854
159,Madhya Pradesh,Indore,Energy & Environment,Upscaling energy efficient production in small-scale steel industry in India,SDG 7 : Affordable and Clean Energy;,no,no,no,no,no,no,yes,no,yes,no,no,no,no,no,no,no,no,Energy Efficient Steel,Ministry of Steel,S N Srinivas,01-Jun-13,31-Dec-16,"125,706","122,992","20,137","13,047","5,882",23.167,79.9501
160,Goa,All Districts,Energy & Environment,Upscaling energy efficient production in small-scale steel industry in India,SDG 7 : Affordable and Clean Energy;,no,no,no,no,no,no,yes,no,yes,no,no,no,no,no,no,no,no,Energy Efficient Steel,Ministry of Steel,S N Srinivas,01-Jun-13,31-Dec-16,"125,706","122,992","20,137","13,047","5,882",15.5442,73.7553
162,Meghalaya,West Garo Hills,Energy & Environment,Upscaling energy efficient production in small-scale steel industry in India,SDG 7 : Affordable and Clean Energy;,no,no,no,no,no,no,yes,no,yes,no,no,no,no,no,no,no,no,Energy Efficient Steel,Ministry of Steel,S N Srinivas,01-Jun-13,31-Dec-16,"125,706","122,992","20,137","13,047","5,882",25.5142,90.2024
163,Uttarakhand,All Districts,Energy & Environment,Upscaling energy efficient production in small-scale steel industry in India,SDG 7 : Affordable and Clean Energy;,no,no,no,no,no,no,yes,no,yes,no,no,no,no,no,no,no,no,Energy Efficient Steel,Ministry of Steel,S N Srinivas,01-Jun-13,31-Dec-16,"125,706","122,992","20,137","13,047","5,882",31,78.5
164,Delhi/NCR,Delhi,Energy & Environment,Upscaling energy efficient production in small-scale steel industry in India,SDG 7 : Affordable and Clean Energy;,no,no,no,no,no,no,yes,no,yes,no,yes,no,no,no,no,no,no,Energy Efficient Steel,Ministry of Steel,S N Srinivas,06-Jan-13,30-Jun-15,"125,706","122,992","20,137","13,047","5,882",28.7040592,77.1024902
165,Delhi/NCR,Delhi,Energy & Environment,Scale-up of access to clean energy for rural productive uses,SDG 7 : Affordable and Clean Energy;,no,no,no,no,no,no,yes,no,no,no,yes,no,no,no,no,no,no,Access to Clean Energy,Ministry of New and Renewable Energy,S N Srinivas,01-Jan-15,31-Dec-19,"3,880,000","76,584","800,000","63,000","650,000",28.7040592,77.1024902
166,Assam,"Darrang, Kamrup, Goalpara, Barpeta",Energy & Environment,Scale-up of access to clean energy for rural productive uses,SDG 7 : Affordable and Clean Energy;,no,no,no,no,no,no,yes,no,no,no,no,no,no,no,no,no,no,Access to Clean Energy,Ministry of New and Renewable Energy,S N Srinivas,01-Jan-15,31-Dec-19,"50,000",-,-,-,"50,000",26.3373,90.1236
167,Madhya Pradesh,All Districts,Energy & Environment,Scale-up of access to clean energy for rural productive uses,SDG 7 : Affordable and Clean Energy;,no,no,no,no,no,no,yes,no,no,no,no,no,no,no,no,no,no,Access to Clean Energy,Ministry of New and Renewable Energy,S N Srinivas,01-Jan-15,31-Dec-19,"50,000",-,-,-,"50,000",26.2298,78.1734
168,Odisha,All Districts,Energy & Environment,Scale-up of access to clean energy for rural productive uses,SDG 7 : Affordable and Clean Energy;,no,no,no,no,no,no,yes,no,no,no,no,no,no,no,no,no,no,Access to Clean Energy,Ministry of New and Renewable Energy,S N Srinivas,01-Jan-15,31-Dec-19,"50,000",-,-,-,"50,000",21.4653,83.9757
169,Delhi/NCR,Delhi,Energy & Environment,Sustainable urban transport programme,SDG 11 : Sustainable Cities and Communities;,no,no,no,no,no,no,no,no,yes,no,yes,no,no,no,no,no,no,Sustainable Urban Transport,Ministry of Urban Development,Saba Kalam,12-Jan-10,31-Dec-18,"3,210,271","1,921,637","576,813","278,694","353,449",28.7040592,77.1024902
170,Delhi/NCR,Delhi,Energy & Environment,Improving energy efficiency in Indian Railways,SDG 13 : Climate Change;,no,no,no,no,no,no,yes,no,yes,no,no,no,no,no,no,no,no,Energy Efficient Railways,Ministry of Railways,Saba Kalam,09-Jan-11,31-Dec-16,"5,200,000","3,533,206","1,114,493","897,320",-,28.7040592,77.1024902
171,Delhi/NCR,Delhi,Energy & Environment,Preparation of Third National Communication and other new information to the UNFCCC,SDG 13 : Climate Change;,no,no,no,no,no,no,no,no,no,no,no,no,yes,no,no,no,no,Third National UNFCCC,"Ministry of Environment, Forest and Climate Change",Saba Kalam,02-Jan-13,31-Jan-18,"9,160,604","1,086,412","1,647,700","382,930","2,000,000",28.7040592,77.1024902
172,Delhi/NCR,Delhi,Energy & Environment,Strengthening climate change sensitive planning and implementation,SDG 7 : Affordable and Clean Energy;,no,no,no,no,no,no,yes,no,no,no,no,no,yes,no,no,no,no,Strategies for Climate Action,UNDP,Saba Kalam,07-Jan-11,07-Jan-17,"1,250,000","611,211","178,538","172,812","460,251",28.7040592,77.1024902
173,Sikkim,All Districts,Energy & Environment,Strengthening climate change sensitive planning and implementation,SDG 7 : Affordable and Clean Energy;,no,no,no,no,no,no,yes,no,no,no,no,no,no,no,no,no,no,Strategies for Climate Action,UNDP,Saba Kalam,07-Jan-11,07-Jan-17,"1,000,000","600,000","300,000","163,775","100,000",27.3257,88.6122
174,Uttarakhand,All Districts,Energy & Environment,Strengthening climate change sensitive planning and implementation,SDG 7 : Affordable and Clean Energy;,no,no,no,no,no,no,yes,no,no,no,no,no,no,no,no,no,no,Strategies for Climate Action,UNDP,Saba Kalam,07-Jan-11,07-Jan-17,"1,000,000","600,000","300,000","174,556","100,000",29.8664,77.8913
175,Madhya Pradesh,All Districts,Energy & Environment,Strengthening climate change sensitive planning and implementation,SDG 13 : Climate Change;,no,no,no,no,no,no,no,no,no,no,no,no,yes,no,no,no,no,Strategies for Climate Action,UNDP,Saba Kalam,01-Jan-16,31-Dec-18,"717,352","430,411","250,000","125,677","36,941",25.6647,76.6962
176,Delhi/NCR,Delhi,Energy & Environment,Market transformation and removal of barriers for effective implementation of state-level climate change action plans,SDG 7 : Affordable and Clean Energy;SDG 13 : Climate Change;,no,no,no,no,no,no,no,no,no,no,no,no,yes,no,no,no,no,Climate Change Action Plans,"Ministry of Environment, Forest and Climate Change",Saba Kalam,01-May-15,31-Dec-18,"1,244,500",-,"367,823","150,084","1,926,177",28.7040592,77.1024902
177,Jharkhand,All Districts,Energy & Environment,Market transformation and removal of barriers for effective implementation of state-level climate change action plans,SDG 7 : Affordable and Clean Energy;SDG 13 : Climate Change;,yes,no,no,no,no,no,no,no,no,no,no,no,no,no,no,no,no,Climate Change Action Plans,"Ministry of Environment, Forest and Climate Change",Saba Kalam,01-May-15,31-Dec-18,"1,500,000",-,"100,000","50,000","1,400,000",23.0753,85.279
178,Manipur,All Districts,Energy & Environment,Market transformation and removal of barriers for effective implementation of state-level climate change action plans,SDG 7 : Affordable and Clean Energy;SDG 13 : Climate Change;,no,no,no,no,no,no,yes,no,no,no,no,no,yes,no,no,no,no,Climate Change Action Plans,"Ministry of Environment, Forest and Climate Change",Saba Kalam,01-May-15,31-Dec-18,"1,000,000",-,"100,000","50,000","900,000",24.6077,93.78
179,Delhi/NCR,Delhi,Poverty Reduction,Governance and accelerated livelihoods support,SDG 1 : No Poverty;,yes,no,no,no,no,no,no,no,no,no,no,no,no,no,no,no,no,Livelihood Support,Ministry of Rural Development,Shashi Sudhir,01-Jan-13,31-Dec-17,"16,650,000","6,858,238","1,632,437","1,126,833","460,000",28.7040592,77.1024902
180,Assam,Kamrup,Poverty Reduction,Governance and accelerated livelihoods support,SDG 1 : No Poverty;,no,no,no,no,no,no,yes,no,no,no,no,no,no,no,no,no,no,Livelihood Support,Ministry of Rural Development,Shashi Sudhir,01-Jan-13,31-Dec-17,"224,000","85,333","102,000","67,890","230,000",26.6333,92.8
181,Manipur,All Districts,Poverty Reduction,Governance and accelerated livelihoods support,SDG 1 : No Poverty;,yes,no,no,no,no,no,no,no,no,no,no,no,no,no,no,no,no,Livelihood Support,Ministry of Rural Development,Shashi Sudhir,01-Jan-13,31-Dec-17,"224,000","56,900","102,000","67,890","230,000",24.4982,93.9813
182,Meghalaya,All Districts,Poverty Reduction,Governance and accelerated livelihoods support,SDG 1 : No Poverty;,yes,no,no,no,no,no,no,no,no,no,no,no,no,no,no,no,no,Livelihood Support,Ministry of Rural Development,Shashi Sudhir,01-Jan-13,31-Dec-17,"224,000","85,222","102,000","67,890","230,000",25.1837,92.0244
183,Sikkim,All Districts,Poverty Reduction,Governance and accelerated livelihoods support,SDG 1 : No Poverty;,yes,no,no,no,no,no,no,no,no,no,no,no,no,no,no,no,no,Livelihood Support,Ministry of Rural Development,Shashi Sudhir,01-Jan-13,31-Dec-17,"224,000","36,555","102,000","67,890","230,000",27.75,88.3167
184,Tripura,All Districts,Poverty Reduction,Governance and accelerated livelihoods support,SDG 1 : No Poverty;,yes,no,no,no,no,no,no,no,no,no,no,no,no,no,no,no,no,Livelihood Support,Ministry of Rural Development,Shashi Sudhir,01-Jan-13,31-Dec-17,"224,000","92,555","102,000","67,890","230,000",24.3667,92.1667
185,Chhattisgarh,"Bijapur, Balrampur, Narayanpur, Sukma",Poverty Reduction,Governance and accelerated livelihoods support,SDG 1 : No Poverty;,no,no,no,no,no,no,no,no,no,no,yes,yes,no,no,no,no,no,Livelihood Support,Ministry of Rural Development,Shashi Sudhir,01-Jan-13,31-Dec-17,"200,000","65,222","134,000","97,465","230,000",20.7072,81.5487
186,Jharkhand,"Gumla, Latehar, Palamu, West Singhbhum",Poverty Reduction,Governance and accelerated livelihoods support,SDG 1 : No Poverty;,yes,no,no,no,yes,no,no,yes,no,yes,no,no,no,no,no,no,yes,Livelihood Support,Ministry of Rural Development,Shashi Sudhir,01-Jan-13,31-Dec-17,"200,000","32,000","134,000","125,443","230,000",23.7408,86.4146
187,Odisha,"Kalahandi, Koraput, Malkangiri, Nuapada",Poverty Reduction,Governance and accelerated livelihoods support,SDG 1 : No Poverty;,yes,no,no,no,no,no,no,no,no,no,no,no,no,no,no,no,no,Livelihood Support,Ministry of Rural Development,Shashi Sudhir,01-Jan-13,31-Dec-17,"200,000","65,222","134,000","115,647","230,000",20.465,85.8793
188,Delhi/NCR,Delhi,Poverty Reduction,Strengthening national capacities in tribal areas,SDG 1 : No Poverty;SDG 10 : Reduced Inequalities;,yes,no,no,no,no,no,no,no,no,yes,no,no,no,no,no,no,no,Tribal Capacity Building,Ministry of Tribal Affairs,Sushil Chaudhary,05-Jan-13,31-Dec-17,"3,120,000","1,204,527","177,000","161,643","191,000",28.7040592,77.1024902
189,Odisha,Sundargarh,Poverty Reduction,Strengthening national capacities in tribal areas,SDG 1 : No Poverty;SDG 10 : Reduced Inequalities;,yes,no,no,no,no,no,no,no,no,yes,no,no,no,no,no,no,no,Tribal Capacity Building,Ministry of Tribal Affairs,Sushil Chaudhary,05-Jan-13,31-Dec-17,"80,000","48,000","23,000","12,333","9,000",20.3164,86.6085
190,Delhi/NCR,Delhi,Democratic Governance,Strengthening capacities of panchayati raj institutions,"SDG 1 : No Poverty;SDG 2 : Zero Hunger;SDG 3 : Good Health and Well-being;SDG 4 : Quality Education;SDG 5 : Gender Equality;SDG 10 : Reduced Inequalities;SDG 16 : Peace, Justice and Strong Institutions;",no,no,no,no,no,no,no,no,no,no,no,no,no,no,no,yes,no,Strengthening Panchayati Raj Institutions,Ministry of Panchayati Raj,Tina Mathur,09-Jan-13,31-Dec-17,"1,246,000","562,977","300,300","208,694","298,400",28.7040592,77.1024902
192,Assam,All Districts,Democratic Governance,Strengthening capacities of panchayati raj institutions,"SDG 1 : No Poverty;SDG 2 : Zero Hunger;SDG 3 : Good Health and Well-being;SDG 4 : Quality Education;SDG 5 : Gender Equality;SDG 10 : Reduced Inequalities;SDG 16 : Peace, Justice and Strong Institutions;",yes,no,no,no,no,no,no,no,no,no,no,no,no,no,no,no,no,Strengthening Panchayati Raj Institutions,Ministry of Panchayati Raj,Tina Mathur,09-Jan-13,31-Dec-17,"1,000",600,-,-,400,26.4959,90.703
193,Manipur,All Districts,Democratic Governance,Strengthening capacities of panchayati raj institutions,"SDG 1 : No Poverty;SDG 2 : Zero Hunger;SDG 3 : Good Health and Well-being;SDG 4 : Quality Education;SDG 5 : Gender Equality;SDG 10 : Reduced Inequalities;SDG 16 : Peace, Justice and Strong Institutions;",yes,yes,yes,yes,yes,no,no,no,no,yes,no,no,no,no,no,yes,no,Strengthening Panchayati Raj Institutions,Ministry of Panchayati Raj,Tina Mathur,09-Jan-13,31-Dec-17,"1,000",600,-,-,400,24.2355,94.0932
194,Odisha,All Districts,Democratic Governance,Strengthening capacities of panchayati raj institutions,"SDG 1 : No Poverty;SDG 2 : Zero Hunger;SDG 3 : Good Health and Well-being;SDG 4 : Quality Education;SDG 5 : Gender Equality;SDG 10 : Reduced Inequalities;SDG 16 : Peace, Justice and Strong Institutions;",yes,yes,yes,yes,yes,no,no,no,no,yes,no,no,no,no,no,yes,no,Strengthening Panchayati Raj Institutions,Ministry of Panchayati Raj,Tina Mathur,01-Jan-13,31-Dec-17,"1,000",600,-,-,400,18.25,81.95
195,Tripura,All Districts,Democratic Governance,Strengthening capacities of panchayati raj institutions,"SDG 1 : No Poverty;SDG 2 : Zero Hunger;SDG 3 : Good Health and Well-being;SDG 4 : Quality Education;SDG 5 : Gender Equality;SDG 10 : Reduced Inequalities;SDG 16 : Peace, Justice and Strong Institutions;",yes,yes,yes,yes,yes,no,no,no,no,yes,no,no,no,no,no,yes,no,Strengthening Panchayati Raj Institutions,Ministry of Panchayati Raj,Tina Mathur,01-Jan-13,31-Dec-17,"1,000",600,-,-,400,23.8361,91.2794
196,Delhi/NCR,Delhi,Democratic Governance,Strengthening public administration and governance,"SDG 16 : Peace, Justice and Strong Institutions;",yes,yes,yes,yes,yes,no,no,no,no,yes,no,no,no,no,no,yes,no,Strengthening Public Administration,"Department of Administrative Reforms & Public Grievances; Ministry of Personnel, Public Grievances and Pensions",Tina Mathur,10-Jan-13,31-Dec-17,"1,000,000","382,951","250,000","162,456","100,000",28.7040592,77.1024902